[{"loteria":"lotofacil","nome":"Lotofácil","concurso":2509,"data":"30/04/2022","local":"ESPAÇODASORTE em SÃOPAULO,SP","dezenas":["02","03","04","05","09","10","11","12","13","14","19","21","22","23","25"],"premiacoes":[{"acertos":"15 Pontos","vencedores":1,"premio":"1.095.613,68"},{"acertos":"14 Pontos","vencedores":243,"premio":"1.350,53"},{"acertos":"13 Pontos","vencedores":9668,"premio":"25,00"},{"acertos":"12 Pontos","vencedores":131822,"premio":"10,00"},{"acertos":"11 Pontos","vencedores":680637,"premio":"5,00"}],"estadosPremiados":[],"acumulou":true,"acumuladaProxConcurso":"R$ 4 Milhões","dataProxConcurso":"02/05/2022","proxConcurso":2510,"timeCoracao":null,"mesSorte":null},{"loteria":"lotofacil","nome":"Lotofácil","concurso":2508,"data":"29/04/2022","local":"ESPAÇODASORTE em SÃOPAULO,SP","dezenas":["01","02","05","06","07","10","11","12","14","15","17","18","19","20","21"],"premiacoes":[{"acertos":"15 Pontos","vencedores":3,"premio":"524.029,36"},{"acertos":"14 Pontos","vencedores":326,"premio":"1.444,48"},{"acertos":"13 Pontos","vencedores":10101,"premio":"25,00"},{"acertos":"12 Pontos","vencedores":121535,"premio":"10,00"},{"acertos":"11 Pontos","vencedores":644902,"premio":"5,00"}],"estadosPremiados":[{"nome":"Goiás","uf":"GO","vencedores":"1","latitude":"36.7156122","longitude":"-95.9435511","cidades":[{"cidade":"","vencedores":"1","latitude":null,"longitude":null}]},{"nome":"São Paulo","uf":"SP","vencedores":"1","latitude":"-23.5557714","longitude":"-46.6395571","cidades":[{"cidade":"Andradina","vencedores":"1","latitude":"-20.8575818","longitude":"-51.3889736"}]}],"acumulou":false,"acumuladaProxConcurso":"R$ 1,5 Milhão","dataProxConcurso":"30/04/2022","proxConcurso":2509,"timeCoracao":null,"mesSorte":null},{"loteria":"lotofacil","nome":"Lotofácil","concurso":2507,"data":"28/04/2022","local":"ESPAÇODASORTE em SÃOPAULO,SP","dezenas":["03","04","05","07","08","09","10","11","13","14","15","16","19","20","25"],"premiacoes":[{"acertos":"15 Pontos","vencedores":1,"premio":"982.276,23"},{"acertos":"14 Pontos","vencedores":343,"premio":"857,81"},{"acertos":"13 Pontos","vencedores":16467,"premio":"25,00"},{"acertos":"12 Pontos","vencedores":120932,"premio":"10,00"},{"acertos":"11 Pontos","vencedores":632473,"premio":"5,00"}],"estadosPremiados":[{"nome":"São Paulo","uf":"SP","vencedores":"1","latitude":"-23.5557714","longitude":"-46.6395571","cidades":[{"cidade":"Caraguatatuba","vencedores":"1","latitude":"-23.6255903","longitude":"-45.4241453"}]}],"acumulou":false,"acumuladaProxConcurso":"","dataProxConcurso":"","proxConcurso":2508,"timeCoracao":null,"mesSorte":null},{"loteria":"lotofacil","nome":"Lotofácil","concurso":2506,"data":"27/04/2022","local":"ESPAÇODASORTE em SÃOPAULO,SP","dezenas":["03","04","05","08","09","10","11","14","15","16","18","19","20","22","25"],"premiacoes":[{"acertos":"15 Pontos","vencedores":2,"premio":"629.367,41"},{"acertos":"14 Pontos","vencedores":312,"premio":"1.208,46"},{"acertos":"13 Pontos","vencedores":10917,"premio":"25,00"},{"acertos":"12 Pontos","vencedores":130230,"premio":"10,00"},{"acertos":"11 Pontos","vencedores":655810,"premio":"5,00"}],"estadosPremiados":[{"nome":"Paraná","uf":"PR","vencedores":"1","latitude":"-25.2520888","longitude":"-52.0215415","cidades":[{"cidade":"Rolândia","vencedores":"1","latitude":null,"longitude":null}]},{"nome":"Rio de Janeiro","uf":"RJ","vencedores":"1","latitude":"34.948626","longitude":"@@GTo08","cidades":[{"cidade":"Rio de Janeiro","vencedores":"1","latitude":"-22.9068467","longitude":"-43.1728965"}]}],"acumulou":false,"acumuladaProxConcurso":"R$ 1,5 Milhão","dataProxConcurso":"28/04/2022","proxConcurso":2507,"timeCoracao":null,"mesSorte":null},{"loteria":"lotofacil","nome":"Lotofácil","concurso":2505,"data":"26/04/2022","local":"ESPAÇODASORTE em SÃOPAULO,SP","dezenas":["01","02","03","04","06","08","09","10","17","18","19","21","23","24","25"],"premiacoes":[{"acertos":"15 Pontos","vencedores":1,"premio":"1.380.583,92"},{"acertos":"14 Pontos","vencedores":191,"premio":"1.515,59"},{"acertos":"13 Pontos","vencedores":7696,"premio":"25,00"},{"acertos":"12 Pontos","vencedores":105675,"premio":"10,00"},{"acertos":"11 Pontos","vencedores":585444,"premio":"5,00"}],"estadosPremiados":[],"acumulou":false,"acumuladaProxConcurso":"","dataProxConcurso":"","proxConcurso":2506,"timeCoracao":null,"mesSorte":null},{"loteria":"lotofacil","nome":"Lotofácil","concurso":2504,"data":"25/04/2022","local":"ESPAÇODASORTE em SÃOPAULO,SP","dezenas":["03","05","07","08","12","13","14","15","16","17","20","21","22","23","24"],"premiacoes":[{"acertos":"15 Pontos","vencedores":1,"premio":"1.331.204,43"},{"acertos":"14 Pontos","vencedores":280,"premio":"1.424,09"},{"acertos":"13 Pontos","vencedores":11035,"premio":"25,00"},{"acertos":"12 Pontos","vencedores":126656,"premio":"10,00"},{"acertos":"11 Pontos","vencedores":673245,"premio":"5,00"}],"estadosPremiados":[{"nome":"Mato Grosso","uf":"MT","vencedores":"1","latitude":"-12.6818712","longitude":"-56.921099","cidades":[{"cidade":"Cuiabá","vencedores":"1","latitude":"-15.6014109","longitude":"-56.0978917"}]}],"acumulou":false,"acumuladaProxConcurso":"R$ 1,5 Milhão","dataProxConcurso":"26/04/2022","proxConcurso":2505,"timeCoracao":null,"mesSorte":null},{"loteria":"lotofacil","nome":"Lotofácil","concurso":2503,"data":"23/04/2022","local":"ESPAÇO LOTERIAS CAIXA em SÃO PAULO, SP","dezenas":["01","02","03","04","06","07","09","10","11","12","13","18","19","20","22"],"premiacoes":[{"acertos":"15 Pontos","vencedores":2,"premio":"630.795,01"},{"acertos":"14 Pontos","vencedores":253,"premio":"1.493,65"},{"acertos":"13 Pontos","vencedores":8772,"premio":"25,00"},{"acertos":"12 Pontos","vencedores":106906,"premio":"10,00"},{"acertos":"11 Pontos","vencedores":572862,"premio":"5,00"}],"estadosPremiados":[{"nome":"Goiás","uf":"GO","vencedores":"1","latitude":"36.7156122","longitude":"-95.9435511","cidades":[{"cidade":"Anápolis","vencedores":"1","latitude":"-16.3286427","longitude":"-48.95343339999999"}]},{"nome":"Estado inválido","uf":"XX","vencedores":"1","latitude":"38.2898861","longitude":"-95.95255139999999","cidades":[{"cidade":"","vencedores":"1","latitude":null,"longitude":null}]}],"acumulou":false,"acumuladaProxConcurso":"","dataProxConcurso":"","proxConcurso":2504,"timeCoracao":null,"mesSorte":null},{"loteria":"lotofacil","nome":"Lotofácil","concurso":2502,"data":"22/04/2022","local":"ESPAÇODASORTE em SÃOPAULO,SP","dezenas":["02","03","04","05","09","11","12","13","15","18","20","21","23","24","25"],"premiacoes":[{"acertos":"15 Pontos","vencedores":3,"premio":"404.057,36"},{"acertos":"14 Pontos","vencedores":287,"premio":"1.265,13"},{"acertos":"13 Pontos","vencedores":12326,"premio":"25,00"},{"acertos":"12 Pontos","vencedores":166219,"premio":"10,00"},{"acertos":"11 Pontos","vencedores":840341,"premio":"5,00"}],"estadosPremiados":[{"nome":"Rio de Janeiro","uf":"RJ","vencedores":"1","latitude":"34.948626","longitude":"@@GTo08","cidades":[{"cidade":"Rio de Janeiro","vencedores":"1","latitude":"-22.9068467","longitude":"-43.1728965"}]},{"nome":"Rio Grande do Sul","uf":"RS","vencedores":"1","latitude":"-30.0346316","longitude":"-51.2176986","cidades":[{"cidade":"Nicolau Vergueiro","vencedores":"1","latitude":null,"longitude":null}]}],"acumulou":false,"acumuladaProxConcurso":"","dataProxConcurso":"","proxConcurso":2503,"timeCoracao":null,"mesSorte":null},{"loteria":"lotofacil","nome":"Lotofácil","concurso":2501,"data":"20/04/2022","local":"ESPAÇODASORTE em SÃOPAULO,SP","dezenas":["01","02","03","04","05","06","07","08","09","11","19","20","22","23","25"],"premiacoes":[{"acertos":"15 Pontos","vencedores":1,"premio":"1.699.631,72"},{"acertos":"14 Pontos","vencedores":296,"premio":"1.719,95"},{"acertos":"13 Pontos","vencedores":9069,"premio":"25,00"},{"acertos":"12 Pontos","vencedores":113308,"premio":"10,00"},{"acertos":"11 Pontos","vencedores":639155,"premio":"5,00"}],"estadosPremiados":[{"nome":"Rio Grande do Norte","uf":"RN","vencedores":"1","latitude":"-5.402580299999999","longitude":"-36.954107","cidades":[{"cidade":"Passa e Fica","vencedores":"1","latitude":null,"longitude":null}]}],"acumulou":false,"acumuladaProxConcurso":"","dataProxConcurso":"","proxConcurso":2502,"timeCoracao":null,"mesSorte":null},{"loteria":"lotofacil","nome":"Lotofácil","concurso":2500,"data":"19/04/2022","local":"ESPAÇODASORTE em SÃOPAULO,SP","dezenas":["03","04","05","06","09","11","12","13","14","15","17","18","19","21","25"],"premiacoes":[{"acertos":"15 Pontos","vencedores":2,"premio":"2.303.044,56"},{"acertos":"14 Pontos","vencedores":388,"premio":"1.556,14"},{"acertos":"13 Pontos","vencedores":15194,"premio":"25,00"},{"acertos":"12 Pontos","vencedores":198967,"premio":"10,00"},{"acertos":"11 Pontos","vencedores":1056911,"premio":"5,00"}],"estadosPremiados":[{"nome":"Paraná","uf":"PR","vencedores":"1","latitude":"-25.2520888","longitude":"-52.0215415","cidades":[{"cidade":"Porecatu","vencedores":"1","latitude":"-22.7520712","longitude":"-51.3808905"}]}],"acumulou":false,"acumuladaProxConcurso":"","dataProxConcurso":"","proxConcurso":2501,"timeCoracao":null,"mesSorte":null},{"loteria":"lotofacil","nome":"Lotofácil","concurso":2499,"data":"18/04/2022","local":"ESPAÇODASORTE em SÃOPAULO,SP","dezenas":["02","03","04","05","07","08","11","12","14","16","17","19","20","22","23"],"premiacoes":[{"acertos":"15 Pontos","vencedores":2,"premio":"748.478,32"},{"acertos":"14 Pontos","vencedores":321,"premio":"1.396,87"},{"acertos":"13 Pontos","vencedores":10002,"premio":"25,00"},{"acertos":"12 Pontos","vencedores":113447,"premio":"10,00"},{"acertos":"11 Pontos","vencedores":597428,"premio":"5,00"}],"estadosPremiados":[{"nome":"São Paulo","uf":"SP","vencedores":"1","latitude":"-23.5557714","longitude":"-46.6395571","cidades":[{"cidade":"Mirassol","vencedores":"1","latitude":"-20.8157875","longitude":"-49.5047803"}]}],"acumulou":false,"acumuladaProxConcurso":"","dataProxConcurso":"","proxConcurso":2500,"timeCoracao":null,"mesSorte":null},{"loteria":"lotofacil","nome":"Lotofácil","concurso":2498,"data":"16/04/2022","local":"ESPAÇODASORTE em SÃOPAULO,SP","dezenas":["01","02","05","06","07","08","09","11","12","17","18","19","20","22","25"],"premiacoes":[{"acertos":"15 Pontos","vencedores":2,"premio":"771.993,40"},{"acertos":"14 Pontos","vencedores":208,"premio":"1.556,44"},{"acertos":"13 Pontos","vencedores":7308,"premio":"25,00"},{"acertos":"12 Pontos","vencedores":98992,"premio":"10,00"},{"acertos":"11 Pontos","vencedores":555487,"premio":"5,00"}],"estadosPremiados":[{"nome":"Rio de Janeiro","uf":"RJ","vencedores":"1","latitude":"34.948626","longitude":"@@GTo08","cidades":[{"cidade":"Rio de Janeiro","vencedores":"1","latitude":"-22.9068467","longitude":"-43.1728965"}]}],"acumulou":false,"acumuladaProxConcurso":"","dataProxConcurso":"","proxConcurso":2499,"timeCoracao":null,"mesSorte":null},{"loteria":"lotofacil","nome":"Lotofácil","concurso":2497,"data":"14/04/2022","local":"ESPAÇODASORTE em SÃOPAULO,SP","dezenas":["02","06","07","08","09","11","12","14","15","18","19","20","22","23","25"],"premiacoes":[{"acertos":"15 Pontos","vencedores":2,"premio":"777.111,20"},{"acertos":"14 Pontos","vencedores":190,"premio":"1.715,19"},{"acertos":"13 Pontos","vencedores":7481,"premio":"25,00"},{"acertos":"12 Pontos","vencedores":101899,"premio":"10,00"},{"acertos":"11 Pontos","vencedores":600007,"premio":"5,00"}],"estadosPremiados":[{"nome":"Pernambuco","uf":"PE","vencedores":"1","latitude":"-8.8137173","longitude":"-36.954107","cidades":[{"cidade":"Jaboatão dos Guararapes","vencedores":"1","latitude":"-8.1688125","longitude":"-34.920874"}]},{"nome":"São Paulo","uf":"SP","vencedores":"1","latitude":"-23.5557714","longitude":"-46.6395571","cidades":[{"cidade":"Marília","vencedores":"1","latitude":"-22.2175825","longitude":"-49.95052150000001"}]}],"acumulou":false,"acumuladaProxConcurso":"","dataProxConcurso":"","proxConcurso":2498,"timeCoracao":null,"mesSorte":null},{"loteria":"lotofacil","nome":"Lotofácil","concurso":2496,"data":"13/04/2022","local":"ESPAÇODASORTE em SÃOPAULO,SP","dezenas":["02","03","04","08","09","10","11","13","17","18","20","22","23","24","25"],"premiacoes":[{"acertos":"15 Pontos","vencedores":3,"premio":"941.973,09"},{"acertos":"14 Pontos","vencedores":755,"premio":"609,34"},{"acertos":"13 Pontos","vencedores":20868,"premio":"25,00"},{"acertos":"12 Pontos","vencedores":224302,"premio":"10,00"},{"acertos":"11 Pontos","vencedores":1102380,"premio":"5,00"}],"estadosPremiados":[{"nome":"Acre","uf":"AC","vencedores":"1","latitude":"-9.0237964","longitude":"-70.81199529999999","cidades":[{"cidade":"Epitaciolândia","vencedores":"1","latitude":null,"longitude":null}]},{"nome":"Minas Gerais","uf":"MG","vencedores":"1","latitude":"-18.512178","longitude":"-44.5550308","cidades":[{"cidade":"Passos","vencedores":"1","latitude":"-20.7221434","longitude":"-46.6133353"}]},{"nome":"São Paulo","uf":"SP","vencedores":"1","latitude":"-23.5557714","longitude":"-46.6395571","cidades":[{"cidade":"Mairiporã","vencedores":"1","latitude":null,"longitude":null}]}],"acumulou":false,"acumuladaProxConcurso":"","dataProxConcurso":"","proxConcurso":2497,"timeCoracao":null,"mesSorte":null},{"loteria":"lotofacil","nome":"Lotofácil","concurso":2495,"data":"12/04/2022","local":"ESPAÇODASORTE em SÃOPAULO,SP","dezenas":["03","05","09","10","12","13","14","15","16","17","18","19","21","24","25"],"premiacoes":[{"acertos":"15 Pontos","vencedores":0,"premio":"-"},{"acertos":"14 Pontos","vencedores":230,"premio":"1.680,07"},{"acertos":"13 Pontos","vencedores":9347,"premio":"25,00"},{"acertos":"12 Pontos","vencedores":113966,"premio":"10,00"},{"acertos":"11 Pontos","vencedores":643146,"premio":"5,00"}],"estadosPremiados":[],"acumulou":true,"acumuladaProxConcurso":"","dataProxConcurso":"","proxConcurso":2496,"timeCoracao":null,"mesSorte":null},{"loteria":"lotofacil","nome":"Lotofácil","concurso":2494,"data":"11/04/2022","local":"ESPAÇODASORTE em SÃOPAULO,SP","dezenas":["01","02","04","05","06","08","09","10","12","13","16","18","23","24","25"],"premiacoes":[{"acertos":"15 Pontos","vencedores":1,"premio":"1.380.382,58"},{"acertos":"14 Pontos","vencedores":336,"premio":"1.230,59"},{"acertos":"13 Pontos","vencedores":11600,"premio":"25,00"},{"acertos":"12 Pontos","vencedores":139691,"premio":"10,00"},{"acertos":"11 Pontos","vencedores":701862,"premio":"5,00"}],"estadosPremiados":[],"acumulou":false,"acumuladaProxConcurso":"R$ 1,5 Milhão","dataProxConcurso":"12/04/2022","proxConcurso":2495,"timeCoracao":null,"mesSorte":null},{"loteria":"lotofacil","nome":"Lotofácil","concurso":2493,"data":"09/04/2022","local":"ESPAÇODASORTE em SÃOPAULO,SP","dezenas":["02","03","06","07","09","10","11","12","14","15","16","18","20","21","25"],"premiacoes":[{"acertos":"15 Pontos","vencedores":1,"premio":"1.334.431,94"},{"acertos":"14 Pontos","vencedores":264,"premio":"1.514,07"},{"acertos":"13 Pontos","vencedores":9716,"premio":"25,00"},{"acertos":"12 Pontos","vencedores":115188,"premio":"10,00"},{"acertos":"11 Pontos","vencedores":598842,"premio":"5,00"}],"estadosPremiados":[{"nome":"Pernambuco","uf":"PE","vencedores":"1","latitude":"-8.8137173","longitude":"-36.954107","cidades":[{"cidade":"Recife","vencedores":"1","latitude":"-8.0522404","longitude":"-34.9286096"}]}],"acumulou":false,"acumuladaProxConcurso":"","dataProxConcurso":"","proxConcurso":2494,"timeCoracao":null,"mesSorte":null},{"loteria":"lotofacil","nome":"Lotofácil","concurso":2492,"data":"08/04/2022","local":"ESPAÇODASORTE em SÃOPAULO,SP","dezenas":["04","07","08","09","10","11","12","13","14","15","17","20","22","23","24"],"premiacoes":[{"acertos":"15 Pontos","vencedores":1,"premio":"3.908.770,58"},{"acertos":"14 Pontos","vencedores":401,"premio":"1.701,16"},{"acertos":"13 Pontos","vencedores":13863,"premio":"25,00"},{"acertos":"12 Pontos","vencedores":189853,"premio":"10,00"},{"acertos":"11 Pontos","vencedores":1088916,"premio":"5,00"}],"estadosPremiados":[],"acumulou":false,"acumuladaProxConcurso":"","dataProxConcurso":"","proxConcurso":2493,"timeCoracao":null,"mesSorte":null},{"loteria":"lotofacil","nome":"Lotofácil","concurso":2491,"data":"07/04/2022","local":"ESPAÇODASORTE em SÃOPAULO,SP","dezenas":["01","02","03","04","05","06","09","11","14","17","18","19","21","22","24"],"premiacoes":[{"acertos":"15 Pontos","vencedores":0,"premio":"-"},{"acertos":"14 Pontos","vencedores":208,"premio":"1.644,54"},{"acertos":"13 Pontos","vencedores":7739,"premio":"25,00"},{"acertos":"12 Pontos","vencedores":101942,"premio":"10,00"},{"acertos":"11 Pontos","vencedores":583487,"premio":"5,00"}],"estadosPremiados":[],"acumulou":true,"acumuladaProxConcurso":"","dataProxConcurso":"","proxConcurso":2492,"timeCoracao":null,"mesSorte":null},{"loteria":"lotofacil","nome":"Lotofácil","concurso":2490,"data":"06/04/2022","local":"ESPAÇODASORTE em SÃOPAULO,SP","dezenas":["01","03","04","05","06","10","12","13","14","15","16","19","20","24","25"],"premiacoes":[{"acertos":"15 Pontos","vencedores":1,"premio":"4.888.510,20"},{"acertos":"14 Pontos","vencedores":516,"premio":"1.400,55"},{"acertos":"13 Pontos","vencedores":15424,"premio":"25,00"},{"acertos":"12 Pontos","vencedores":202967,"premio":"10,00"},{"acertos":"11 Pontos","vencedores":1106072,"premio":"5,00"}],"estadosPremiados":[],"acumulou":false,"acumuladaProxConcurso":"R$ 1,5 Milhão","dataProxConcurso":"07/04/2022","proxConcurso":2491,"timeCoracao":null,"mesSorte":null},{"loteria":"lotofacil","nome":"Lotofácil","concurso":2489,"data":"05/04/2022","local":"ESPAÇODASORTE em SÃOPAULO,SP","dezenas":["01","04","05","07","08","10","11","13","14","16","18","21","22","23","24"],"premiacoes":[{"acertos":"15 Pontos","vencedores":3,"premio":"1.280.639,43"},{"acertos":"14 Pontos","vencedores":517,"premio":"1.309,89"},{"acertos":"13 Pontos","vencedores":16905,"premio":"25,00"},{"acertos":"12 Pontos","vencedores":186537,"premio":"10,00"},{"acertos":"11 Pontos","vencedores":975324,"premio":"5,00"}],"estadosPremiados":[],"acumulou":false,"acumuladaProxConcurso":"","dataProxConcurso":"","proxConcurso":2490,"timeCoracao":null,"mesSorte":null},{"loteria":"lotofacil","nome":"Lotofácil","concurso":2488,"data":"04/04/2022","local":"ESPAÇODASORTE em SÃOPAULO,SP","dezenas":["01","02","04","05","06","07","09","11","12","13","16","20","21","22","24"],"premiacoes":[{"acertos":"15 Pontos","vencedores":0,"premio":"-"},{"acertos":"14 Pontos","vencedores":276,"premio":"1.715,89"},{"acertos":"13 Pontos","vencedores":9264,"premio":"25,00"},{"acertos":"12 Pontos","vencedores":112527,"premio":"10,00"},{"acertos":"11 Pontos","vencedores":597813,"premio":"5,00"}],"estadosPremiados":[],"acumulou":true,"acumuladaProxConcurso":"","dataProxConcurso":"","proxConcurso":2489,"timeCoracao":null,"mesSorte":null},{"loteria":"lotofacil","nome":"Lotofácil","concurso":2487,"data":"02/04/2022","local":"ESPAÇODASORTE em SÃOPAULO,SP","dezenas":["01","02","06","08","10","11","12","13","14","16","18","20","22","23","24"],"premiacoes":[{"acertos":"15 Pontos","vencedores":2,"premio":"660.525,67"},{"acertos":"14 Pontos","vencedores":486,"premio":"814,21"},{"acertos":"13 Pontos","vencedores":14643,"premio":"25,00"},{"acertos":"12 Pontos","vencedores":121763,"premio":"10,00"},{"acertos":"11 Pontos","vencedores":568546,"premio":"5,00"}],"estadosPremiados":[{"nome":"Santa Catarina","uf":"SC","vencedores":"1","latitude":"-27.336122","longitude":"-50.071794","cidades":[{"cidade":"Joinville","vencedores":"1","latitude":"-26.2834213","longitude":"-48.8452269"}]},{"nome":"São Paulo","uf":"SP","vencedores":"1","latitude":"-23.5557714","longitude":"-46.6395571","cidades":[{"cidade":"","vencedores":"1","latitude":null,"longitude":null}]}],"acumulou":false,"acumuladaProxConcurso":"","dataProxConcurso":"","proxConcurso":2488,"timeCoracao":null,"mesSorte":null},{"loteria":"lotofacil","nome":"Lotofácil","concurso":2486,"data":"01/04/2022","local":"ESPAÇODASORTE em SÃOPAULO,SP","dezenas":["01","02","04","05","08","09","10","11","12","18","19","20","23","24","25"],"premiacoes":[{"acertos":"15 Pontos","vencedores":4,"premio":"331.916,76"},{"acertos":"14 Pontos","vencedores":693,"premio":"573,86"},{"acertos":"13 Pontos","vencedores":15235,"premio":"25,00"},{"acertos":"12 Pontos","vencedores":141150,"premio":"10,00"},{"acertos":"11 Pontos","vencedores":702460,"premio":"5,00"}],"estadosPremiados":[{"nome":"Goiás","uf":"GO","vencedores":"1","latitude":"36.7156122","longitude":"-95.9435511","cidades":[{"cidade":"Formosa","vencedores":"1","latitude":null,"longitude":null}]},{"nome":"Minas Gerais","uf":"MG","vencedores":"1","latitude":"-18.512178","longitude":"-44.5550308","cidades":[{"cidade":"Uberlândia","vencedores":"1","latitude":"-18.9127534","longitude":"-48.275484"}]},{"nome":"Rio Grande do Sul","uf":"RS","vencedores":"1","latitude":"-30.0346316","longitude":"-51.2176986","cidades":[{"cidade":"","vencedores":"1","latitude":null,"longitude":null}]}],"acumulou":false,"acumuladaProxConcurso":"","dataProxConcurso":"","proxConcurso":2487,"timeCoracao":null,"mesSorte":null},{"loteria":"lotofacil","nome":"Lotofácil","concurso":2485,"data":"31/03/2022","local":"ESPAÇODASORTE em SÃOPAULO,SP","dezenas":["01","02","03","08","10","12","14","15","17","18","20","21","23","24","25"],"premiacoes":[{"acertos":"15 Pontos","vencedores":2,"premio":"528.909,63"},{"acertos":"14 Pontos","vencedores":315,"premio":"1.005,89"},{"acertos":"13 Pontos","vencedores":10750,"premio":"25,00"},{"acertos":"12 Pontos","vencedores":116712,"premio":"10,00"},{"acertos":"11 Pontos","vencedores":580777,"premio":"5,00"}],"estadosPremiados":[{"nome":"Mato Grosso do Sul","uf":"MS","vencedores":"1","latitude":"37.09024","longitude":"-95.712891","cidades":[{"cidade":"","vencedores":"1","latitude":null,"longitude":null}]}],"acumulou":false,"acumuladaProxConcurso":"","dataProxConcurso":"","proxConcurso":2486,"timeCoracao":null,"mesSorte":null},{"loteria":"lotofacil","nome":"Lotofácil","concurso":2484,"data":"30/03/2022","local":"ESPAÇODASORTE em SÃOPAULO,SP","dezenas":["04","05","06","08","10","11","12","14","15","17","19","21","22","23","25"],"premiacoes":[{"acertos":"15 Pontos","vencedores":1,"premio":"1.273.499,82"},{"acertos":"14 Pontos","vencedores":465,"premio":"820,35"},{"acertos":"13 Pontos","vencedores":12987,"premio":"25,00"},{"acertos":"12 Pontos","vencedores":130457,"premio":"10,00"},{"acertos":"11 Pontos","vencedores":631656,"premio":"5,00"}],"estadosPremiados":[{"nome":"Mato Grosso","uf":"MT","vencedores":"1","latitude":"-12.6818712","longitude":"-56.921099","cidades":[{"cidade":"Sinop","vencedores":"1","latitude":"-11.8608456","longitude":"-55.5095451"}]}],"acumulou":false,"acumuladaProxConcurso":"","dataProxConcurso":"","proxConcurso":2485,"timeCoracao":null,"mesSorte":null},{"loteria":"lotofacil","nome":"Lotofácil","concurso":2483,"data":"29/03/2022","local":"ESPAÇODASORTE em SÃOPAULO,SP","dezenas":["02","03","06","07","08","10","13","14","15","16","19","20","22","23","25"],"premiacoes":[{"acertos":"15 Pontos","vencedores":7,"premio":"448.508,18"},{"acertos":"14 Pontos","vencedores":527,"premio":"1.083,34"},{"acertos":"13 Pontos","vencedores":11486,"premio":"25,00"},{"acertos":"12 Pontos","vencedores":140022,"premio":"10,00"},{"acertos":"11 Pontos","vencedores":775352,"premio":"5,00"}],"estadosPremiados":[{"nome":"Goiás","uf":"GO","vencedores":"1","latitude":"36.7156122","longitude":"-95.9435511","cidades":[{"cidade":"","vencedores":"1","latitude":null,"longitude":null}]},{"nome":"Goiás","uf":"GO","vencedores":"1","latitude":"36.7156122","longitude":"-95.9435511","cidades":[{"cidade":"Indiara","vencedores":"1","latitude":null,"longitude":null}]},{"nome":"Minas Gerais","uf":"MG","vencedores":"1","latitude":"-18.512178","longitude":"-44.5550308","cidades":[{"cidade":"","vencedores":"1","latitude":null,"longitude":null}]},{"nome":"Rio de Janeiro","uf":"RJ","vencedores":"1","latitude":"34.948626","longitude":"@@GTo08","cidades":[{"cidade":"","vencedores":"1","latitude":null,"longitude":null}]},{"nome":"Sergipe","uf":"SE","vencedores":"1","latitude":"37.0325814","longitude":"-95.6219132","cidades":[{"cidade":"Macambira","vencedores":"1","latitude":null,"longitude":null}]},{"nome":"São Paulo","uf":"SP","vencedores":"2","latitude":"-23.5557714","longitude":"-46.6395571","cidades":[{"cidade":"","vencedores":"2","latitude":null,"longitude":null}]}],"acumulou":false,"acumuladaProxConcurso":"","dataProxConcurso":"","proxConcurso":2484,"timeCoracao":null,"mesSorte":null},{"loteria":"lotofacil","nome":"Lotofácil","concurso":2482,"data":"28/03/2022","local":"ESPAÇODASORTE em SÃOPAULO,SP","dezenas":["03","05","06","07","09","11","12","13","14","16","17","20","21","24","25"],"premiacoes":[{"acertos":"15 Pontos","vencedores":0,"premio":"-"},{"acertos":"14 Pontos","vencedores":261,"premio":"1.415,70"},{"acertos":"13 Pontos","vencedores":9779,"premio":"25,00"},{"acertos":"12 Pontos","vencedores":118436,"premio":"10,00"},{"acertos":"11 Pontos","vencedores":625466,"premio":"5,00"}],"estadosPremiados":[],"acumulou":true,"acumuladaProxConcurso":"","dataProxConcurso":"","proxConcurso":2483,"timeCoracao":null,"mesSorte":null},{"loteria":"lotofacil","nome":"Lotofácil","concurso":2481,"data":"26/03/2022","local":"ESPAÇODASORTE em SÃOPAULO,SP","dezenas":["02","03","05","06","07","09","10","13","14","15","17","18","20","21","25"],"premiacoes":[{"acertos":"15 Pontos","vencedores":1,"premio":"976.123,59"},{"acertos":"14 Pontos","vencedores":369,"premio":"792,37"},{"acertos":"13 Pontos","vencedores":11198,"premio":"25,00"},{"acertos":"12 Pontos","vencedores":124705,"premio":"10,00"},{"acertos":"11 Pontos","vencedores":615039,"premio":"5,00"}],"estadosPremiados":[{"nome":"Goiás","uf":"GO","vencedores":"1","latitude":"36.7156122","longitude":"-95.9435511","cidades":[{"cidade":"Paraúna","vencedores":"1","latitude":"-16.9480783","longitude":"-50.44827"}]}],"acumulou":false,"acumuladaProxConcurso":"","dataProxConcurso":"","proxConcurso":2482,"timeCoracao":null,"mesSorte":null},{"loteria":"lotofacil","nome":"Lotofácil","concurso":2480,"data":"25/03/2022","local":"ESPAÇODASORTE em SÃOPAULO,SP","dezenas":["01","02","05","06","07","09","10","12","13","14","15","16","17","21","24"],"premiacoes":[{"acertos":"15 Pontos","vencedores":3,"premio":"1.643.232,57"},{"acertos":"14 Pontos","vencedores":301,"premio":"1.686,82"},{"acertos":"13 Pontos","vencedores":11673,"premio":"25,00"},{"acertos":"12 Pontos","vencedores":150785,"premio":"10,00"},{"acertos":"11 Pontos","vencedores":884469,"premio":"5,00"}],"estadosPremiados":[{"nome":"Minas Gerais","uf":"MG","vencedores":"1","latitude":"-18.512178","longitude":"-44.5550308","cidades":[{"cidade":"","vencedores":"1","latitude":null,"longitude":null}]},{"nome":"Pará","uf":"PA","vencedores":"1","latitude":"-1.9981271","longitude":"-54.9306152","cidades":[{"cidade":"Belém","vencedores":"1","latitude":"-1.4557292","longitude":"-48.4901785"}]}],"acumulou":false,"acumuladaProxConcurso":"","dataProxConcurso":"","proxConcurso":2481,"timeCoracao":null,"mesSorte":null},{"loteria":"lotofacil","nome":"Lotofácil","concurso":2479,"data":"24/03/2022","local":"ESPAÇODASORTE em SÃOPAULO,SP","dezenas":["02","03","04","05","07","11","12","14","17","19","20","21","23","24","25"],"premiacoes":[{"acertos":"15 Pontos","vencedores":1,"premio":"954.324,30"},{"acertos":"14 Pontos","vencedores":298,"premio":"959,25"},{"acertos":"13 Pontos","vencedores":10454,"premio":"25,00"},{"acertos":"12 Pontos","vencedores":117970,"premio":"10,00"},{"acertos":"11 Pontos","vencedores":592362,"premio":"5,00"}],"estadosPremiados":[{"nome":"Paraná","uf":"PR","vencedores":"1","latitude":"-25.2520888","longitude":"-52.0215415","cidades":[{"cidade":"Piraquara","vencedores":"1","latitude":null,"longitude":null}]}],"acumulou":true,"acumuladaProxConcurso":"R$ 4 Milhões","dataProxConcurso":"25/03/2022","proxConcurso":2480,"timeCoracao":null,"mesSorte":null},{"loteria":"lotofacil","nome":"Lotofácil","concurso":2478,"data":"23/03/2022","local":"ESPAÇODASORTE em SÃOPAULO,SP","dezenas":["01","05","07","08","10","11","12","14","15","16","21","22","23","24","25"],"premiacoes":[{"acertos":"15 Pontos","vencedores":1,"premio":"1.463.603,53"},{"acertos":"14 Pontos","vencedores":171,"premio":"1.794,65"},{"acertos":"13 Pontos","vencedores":8826,"premio":"25,00"},{"acertos":"12 Pontos","vencedores":103006,"premio":"10,00"},{"acertos":"11 Pontos","vencedores":586972,"premio":"5,00"}],"estadosPremiados":[],"acumulou":false,"acumuladaProxConcurso":"R$ 1,5 Milhão","dataProxConcurso":"24/03/2022","proxConcurso":2479,"timeCoracao":null,"mesSorte":null},{"loteria":"lotofacil","nome":"Lotofácil","concurso":2477,"data":"22/03/2022","local":"ESPAÇODASORTE em SÃOPAULO,SP","dezenas":["01","02","03","05","07","08","09","10","13","14","15","18","19","20","24"],"premiacoes":[{"acertos":"15 Pontos","vencedores":4,"premio":"835.568,35"},{"acertos":"14 Pontos","vencedores":496,"premio":"1.047,16"},{"acertos":"13 Pontos","vencedores":16120,"premio":"25,00"},{"acertos":"12 Pontos","vencedores":181898,"premio":"10,00"},{"acertos":"11 Pontos","vencedores":949748,"premio":"5,00"}],"estadosPremiados":[],"acumulou":false,"acumuladaProxConcurso":"R$ 1,5 Milhão","dataProxConcurso":"23/03/2022","proxConcurso":2478,"timeCoracao":null,"mesSorte":null},{"loteria":"lotofacil","nome":"Lotofácil","concurso":2476,"data":"21/03/2022","local":"ESPAÇODASORTE em SÃOPAULO,SP","dezenas":["01","06","09","10","11","12","13","15","16","17","18","21","22","23","24"],"premiacoes":[{"acertos":"15 Pontos","vencedores":0,"premio":"-"},{"acertos":"14 Pontos","vencedores":153,"premio":"2.204,07"},{"acertos":"13 Pontos","vencedores":5981,"premio":"25,00"},{"acertos":"12 Pontos","vencedores":84381,"premio":"10,00"},{"acertos":"11 Pontos","vencedores":533125,"premio":"5,00"}],"estadosPremiados":[],"acumulou":true,"acumuladaProxConcurso":"R$ 4 Milhões","dataProxConcurso":"22/03/2022","proxConcurso":2477,"timeCoracao":null,"mesSorte":null},{"loteria":"lotofacil","nome":"Lotofácil","concurso":2475,"data":"19/03/2022","local":"ESPAÇODASORTE em SÃOPAULO,SP","dezenas":["01","03","04","05","06","07","11","13","15","16","18","19","22","24","25"],"premiacoes":[{"acertos":"15 Pontos","vencedores":2,"premio":"615.342,40"},{"acertos":"14 Pontos","vencedores":343,"premio":"1.074,74"},{"acertos":"13 Pontos","vencedores":10854,"premio":"25,00"},{"acertos":"12 Pontos","vencedores":118051,"premio":"10,00"},{"acertos":"11 Pontos","vencedores":592461,"premio":"5,00"}],"estadosPremiados":[],"acumulou":false,"acumuladaProxConcurso":"","dataProxConcurso":"","proxConcurso":2476,"timeCoracao":null,"mesSorte":null},{"loteria":"lotofacil","nome":"Lotofácil","concurso":2474,"data":"18/03/2022","local":"ESPAÇODASORTE em SÃOPAULO,SP","dezenas":["01","02","05","06","08","09","11","14","15","17","19","20","23","24","25"],"premiacoes":[{"acertos":"15 Pontos","vencedores":8,"premio":"173.831,14"},{"acertos":"14 Pontos","vencedores":432,"premio":"964,24"},{"acertos":"13 Pontos","vencedores":11662,"premio":"25,00"},{"acertos":"12 Pontos","vencedores":120859,"premio":"10,00"},{"acertos":"11 Pontos","vencedores":649316,"premio":"5,00"}],"estadosPremiados":[{"nome":"Bahia","uf":"BA","vencedores":"1","latitude":"-12.579738","longitude":"-41.7007272","cidades":[{"cidade":"Itabuna","vencedores":"1","latitude":"-14.7916229","longitude":"-39.2833243"}]},{"nome":"Ceará","uf":"CE","vencedores":"1","latitude":"-5.4983977","longitude":"-39.3206241","cidades":[{"cidade":"Crateús","vencedores":"1","latitude":null,"longitude":null}]},{"nome":"Distrito Federal","uf":"DF","vencedores":"1","latitude":"-15.7997654","longitude":"-47.8644715","cidades":[{"cidade":"Brasília","vencedores":"1","latitude":"-15.826691","longitude":"-47.92182039999999"}]},{"nome":"Minas Gerais","uf":"MG","vencedores":"1","latitude":"-18.512178","longitude":"-44.5550308","cidades":[{"cidade":"","vencedores":"1","latitude":null,"longitude":null}]},{"nome":"Minas Gerais","uf":"MG","vencedores":"1","latitude":"-18.512178","longitude":"-44.5550308","cidades":[{"cidade":"Dom Bosco","vencedores":"1","latitude":null,"longitude":null}]},{"nome":"São Paulo","uf":"SP","vencedores":"1","latitude":"-23.5557714","longitude":"-46.6395571","cidades":[{"cidade":"Botucatu","vencedores":"1","latitude":"-22.8841808","longitude":"-48.4441654"}]},{"nome":"São Paulo","uf":"SP","vencedores":"1","latitude":"-23.5557714","longitude":"-46.6395571","cidades":[{"cidade":"Paulínia","vencedores":"1","latitude":"-22.7409932","longitude":"-47.1742899"}]},{"nome":"São Paulo","uf":"SP","vencedores":"1","latitude":"-23.5557714","longitude":"-46.6395571","cidades":[{"cidade":"São Paulo","vencedores":"1","latitude":"-23.5505199","longitude":"-46.63330939999999"}]}],"acumulou":false,"acumuladaProxConcurso":"","dataProxConcurso":"","proxConcurso":2475,"timeCoracao":null,"mesSorte":null},{"loteria":"lotofacil","nome":"Lotofácil","concurso":2473,"data":"17/03/2022","local":"ESPAÇO LOTERIAS CAIXA em SÃO PAULO, SP","dezenas":["01","04","06","07","08","09","10","14","16","18","19","20","21","23","25"],"premiacoes":[{"acertos":"15 Pontos","vencedores":1,"premio":"1.411.865,61"},{"acertos":"14 Pontos","vencedores":137,"premio":"2.160,85"},{"acertos":"13 Pontos","vencedores":6291,"premio":"25,00"},{"acertos":"12 Pontos","vencedores":83572,"premio":"10,00"},{"acertos":"11 Pontos","vencedores":476926,"premio":"5,00"}],"estadosPremiados":[{"nome":"Paraná","uf":"PR","vencedores":"1","latitude":"-25.2520888","longitude":"-52.0215415","cidades":[{"cidade":"Ponta Grossa","vencedores":"1","latitude":"-25.0949322","longitude":"-50.1545956"}]}],"acumulou":false,"acumuladaProxConcurso":"","dataProxConcurso":"","proxConcurso":2474,"timeCoracao":null,"mesSorte":null},{"loteria":"lotofacil","nome":"Lotofácil","concurso":2472,"data":"16/03/2022","local":"ESPAÇODASORTE em SÃOPAULO,SP","dezenas":["02","03","04","09","10","12","13","15","16","17","21","22","23","24","25"],"premiacoes":[{"acertos":"15 Pontos","vencedores":2,"premio":"1.667.991,55"},{"acertos":"14 Pontos","vencedores":293,"premio":"1.517,28"},{"acertos":"13 Pontos","vencedores":12090,"premio":"25,00"},{"acertos":"12 Pontos","vencedores":155339,"premio":"10,00"},{"acertos":"11 Pontos","vencedores":874343,"premio":"5,00"}],"estadosPremiados":[{"nome":"Mato Grosso do Sul","uf":"MS","vencedores":"1","latitude":"37.09024","longitude":"-95.712891","cidades":[{"cidade":"","vencedores":"1","latitude":null,"longitude":null}]},{"nome":"São Paulo","uf":"SP","vencedores":"1","latitude":"-23.5557714","longitude":"-46.6395571","cidades":[{"cidade":"Campinas","vencedores":"1","latitude":"-22.9329252","longitude":"-47.073845"}]}],"acumulou":false,"acumuladaProxConcurso":"R$ 1,5 Milhão","dataProxConcurso":"17/03/2022","proxConcurso":2473,"timeCoracao":null,"mesSorte":null},{"loteria":"lotofacil","nome":"Lotofácil","concurso":2471,"data":"15/03/2022","local":"ESPAÇODASORTE em SÃOPAULO,SP","dezenas":["02","03","04","05","08","09","14","17","18","19","20","21","23","24","25"],"premiacoes":[{"acertos":"15 Pontos","vencedores":0,"premio":"-"},{"acertos":"14 Pontos","vencedores":208,"premio":"1.750,81"},{"acertos":"13 Pontos","vencedores":7954,"premio":"25,00"},{"acertos":"12 Pontos","vencedores":110427,"premio":"10,00"},{"acertos":"11 Pontos","vencedores":605165,"premio":"5,00"}],"estadosPremiados":[],"acumulou":true,"acumuladaProxConcurso":"","dataProxConcurso":"","proxConcurso":2472,"timeCoracao":null,"mesSorte":null},{"loteria":"lotofacil","nome":"Lotofácil","concurso":2470,"data":"14/03/2022","local":"ESPAÇODASORTE em SÃOPAULO,SP","dezenas":["01","03","04","05","06","09","10","11","12","13","21","22","23","24","25"],"premiacoes":[{"acertos":"15 Pontos","vencedores":4,"premio":"1.078.029,66"},{"acertos":"14 Pontos","vencedores":503,"premio":"1.301,99"},{"acertos":"13 Pontos","vencedores":14722,"premio":"25,00"},{"acertos":"12 Pontos","vencedores":188015,"premio":"10,00"},{"acertos":"11 Pontos","vencedores":982968,"premio":"5,00"}],"estadosPremiados":[],"acumulou":false,"acumuladaProxConcurso":"R$ 1,5 Milhão","dataProxConcurso":"15/03/2022","proxConcurso":2471,"timeCoracao":null,"mesSorte":null},{"loteria":"lotofacil","nome":"Lotofácil","concurso":2469,"data":"12/03/2022","local":"ESPAÇODASORTE em SÃOPAULO,SP","dezenas":["01","02","04","05","06","07","11","13","17","18","19","20","21","24","25"],"premiacoes":[{"acertos":"15 Pontos","vencedores":2,"premio":"678.450,88"},{"acertos":"14 Pontos","vencedores":152,"premio":"1.871,79"},{"acertos":"13 Pontos","vencedores":7641,"premio":"25,00"},{"acertos":"12 Pontos","vencedores":99662,"premio":"10,00"},{"acertos":"11 Pontos","vencedores":581724,"premio":"5,00"}],"estadosPremiados":[],"acumulou":false,"acumuladaProxConcurso":"","dataProxConcurso":"","proxConcurso":2470,"timeCoracao":null,"mesSorte":null},{"loteria":"lotofacil","nome":"Lotofácil","concurso":2468,"data":"11/03/2022","local":"ESPAÇODASORTE em SÃOPAULO,SP","dezenas":["03","04","07","08","09","12","13","17","18","19","20","21","22","23","24"],"premiacoes":[{"acertos":"15 Pontos","vencedores":1,"premio":"1.148.829,20"},{"acertos":"14 Pontos","vencedores":540,"premio":"637,25"},{"acertos":"13 Pontos","vencedores":20808,"premio":"25,00"},{"acertos":"12 Pontos","vencedores":153008,"premio":"10,00"},{"acertos":"11 Pontos","vencedores":705086,"premio":"5,00"}],"estadosPremiados":[{"nome":"Rio Grande do Sul","uf":"RS","vencedores":"1","latitude":"-30.0346316","longitude":"-51.2176986","cidades":[{"cidade":"Porto Alegre","vencedores":"1","latitude":"-30.0346471","longitude":"-51.2176584"}]}],"acumulou":false,"acumuladaProxConcurso":"R$ 1,5 Milhão","dataProxConcurso":"12/03/2022","proxConcurso":2469,"timeCoracao":null,"mesSorte":null},{"loteria":"lotofacil","nome":"Lotofácil","concurso":2467,"data":"10/03/2022","local":"ESPAÇODASORTE em SÃOPAULO,SP","dezenas":["05","06","08","10","11","12","14","15","16","18","20","21","22","23","25"],"premiacoes":[{"acertos":"15 Pontos","vencedores":3,"premio":"277.431,02"},{"acertos":"14 Pontos","vencedores":684,"premio":"364,48"},{"acertos":"13 Pontos","vencedores":17442,"premio":"25,00"},{"acertos":"12 Pontos","vencedores":161053,"premio":"10,00"},{"acertos":"11 Pontos","vencedores":638447,"premio":"5,00"}],"estadosPremiados":[{"nome":"Bahia","uf":"BA","vencedores":"1","latitude":"-12.579738","longitude":"-41.7007272","cidades":[{"cidade":"Itabuna","vencedores":"1","latitude":"-14.7916229","longitude":"-39.2833243"}]},{"nome":"Pará","uf":"PA","vencedores":"1","latitude":"-1.9981271","longitude":"-54.9306152","cidades":[{"cidade":"Tailândia","vencedores":"1","latitude":null,"longitude":null}]},{"nome":"Santa Catarina","uf":"SC","vencedores":"1","latitude":"-27.336122","longitude":"-50.071794","cidades":[{"cidade":"Imbituba","vencedores":"1","latitude":null,"longitude":null}]}],"acumulou":false,"acumuladaProxConcurso":"","dataProxConcurso":"","proxConcurso":2468,"timeCoracao":null,"mesSorte":null},{"loteria":"lotofacil","nome":"Lotofácil","concurso":2466,"data":"09/03/2022","local":"ESPAÇODASORTE em SÃOPAULO,SP","dezenas":["01","02","05","07","08","09","12","13","14","17","19","20","21","24","25"],"premiacoes":[{"acertos":"15 Pontos","vencedores":18,"premio":"74.680,51"},{"acertos":"14 Pontos","vencedores":603,"premio":"667,75"},{"acertos":"13 Pontos","vencedores":13905,"premio":"25,00"},{"acertos":"12 Pontos","vencedores":139769,"premio":"10,00"},{"acertos":"11 Pontos","vencedores":694343,"premio":"5,00"}],"estadosPremiados":[{"nome":"Bahia","uf":"BA","vencedores":"4","latitude":"-12.579738","longitude":"-41.7007272","cidades":[{"cidade":"Ituaçu","vencedores":"2","latitude":null,"longitude":null},{"cidade":"Juazeiro","vencedores":"1","latitude":"-9.4312697","longitude":"-40.5078709"},{"cidade":"Luís Eduardo Magalhães","vencedores":"1","latitude":"-12.0905224","longitude":"-45.780447"}]},{"nome":"Ceará","uf":"CE","vencedores":"1","latitude":"-5.4983977","longitude":"-39.3206241","cidades":[{"cidade":"Mombaça","vencedores":"1","latitude":null,"longitude":null}]},{"nome":"Distrito Federal","uf":"DF","vencedores":"1","latitude":"-15.7997654","longitude":"-47.8644715","cidades":[{"cidade":"Brasília","vencedores":"1","latitude":"-15.826691","longitude":"-47.92182039999999"}]},{"nome":"Espírito Santo","uf":"ES","vencedores":"1","latitude":"-19.1834229","longitude":"-40.3088626","cidades":[{"cidade":"Guarapari","vencedores":"1","latitude":"-20.6741197","longitude":"-40.4997382"}]},{"nome":"Maranhão","uf":"MA","vencedores":"1","latitude":"42.4072107","longitude":"-71.3824374","cidades":[{"cidade":"Grajaú","vencedores":"1","latitude":null,"longitude":null}]},{"nome":"Mato Grosso","uf":"MT","vencedores":"1","latitude":"-12.6818712","longitude":"-56.921099","cidades":[{"cidade":"Rondonópolis","vencedores":"1","latitude":"-16.465423","longitude":"-54.6387934"}]},{"nome":"Pará","uf":"PA","vencedores":"1","latitude":"-1.9981271","longitude":"-54.9306152","cidades":[{"cidade":"Pacajá","vencedores":"1","latitude":null,"longitude":null}]},{"nome":"Paraíba","uf":"PB","vencedores":"1","latitude":"-7.239960900000001","longitude":"-36.7819505","cidades":[{"cidade":"","vencedores":"1","latitude":null,"longitude":null}]},{"nome":"Paraná","uf":"PR","vencedores":"3","latitude":"-25.2520888","longitude":"-52.0215415","cidades":[{"cidade":"Curitiba","vencedores":"1","latitude":"-25.4808762","longitude":"-49.3044253"},{"cidade":"Santo Antônio da Platina","vencedores":"1","latitude":null,"longitude":null},{"cidade":"Umuarama","vencedores":"1","latitude":"-23.7661064","longitude":"-53.3206105"}]},{"nome":"Rondonia","uf":"RO","vencedores":"1","latitude":"-11.5057341","longitude":"-63.580611","cidades":[{"cidade":"","vencedores":"1","latitude":null,"longitude":null}]},{"nome":"Santa Catarina","uf":"SC","vencedores":"2","latitude":"-27.336122","longitude":"-50.071794","cidades":[{"cidade":"Florianópolis","vencedores":"1","latitude":"-27.5948698","longitude":"-48.54821949999999"},{"cidade":"Joaçaba","vencedores":"1","latitude":null,"longitude":null}]},{"nome":"São Paulo","uf":"SP","vencedores":"1","latitude":"-23.5557714","longitude":"-46.6395571","cidades":[{"cidade":"Guarulhos","vencedores":"1","latitude":"-23.4543395","longitude":"-46.5336678"}]}],"acumulou":false,"acumuladaProxConcurso":"R$ 1,5 Milhão","dataProxConcurso":"10/03/2022","proxConcurso":2467,"timeCoracao":null,"mesSorte":null},{"loteria":"lotofacil","nome":"Lotofácil","concurso":2465,"data":"08/03/2022","local":"ESPAÇODASORTE em SÃOPAULO,SP","dezenas":["02","05","06","07","08","10","11","13","14","15","17","18","19","21","25"],"premiacoes":[{"acertos":"15 Pontos","vencedores":2,"premio":"595.284,46"},{"acertos":"14 Pontos","vencedores":293,"premio":"1.217,14"},{"acertos":"13 Pontos","vencedores":10225,"premio":"25,00"},{"acertos":"12 Pontos","vencedores":123253,"premio":"10,00"},{"acertos":"11 Pontos","vencedores":640592,"premio":"5,00"}],"estadosPremiados":[],"acumulou":false,"acumuladaProxConcurso":"","dataProxConcurso":"","proxConcurso":2466,"timeCoracao":null,"mesSorte":null},{"loteria":"lotofacil","nome":"Lotofácil","concurso":2464,"data":"07/03/2022","local":"ESPAÇODASORTE em SÃOPAULO,SP","dezenas":["01","05","06","07","09","11","13","16","17","20","21","22","23","24","25"],"premiacoes":[{"acertos":"15 Pontos","vencedores":3,"premio":"490.479,68"},{"acertos":"14 Pontos","vencedores":253,"premio":"1.742,10"},{"acertos":"13 Pontos","vencedores":8808,"premio":"25,00"},{"acertos":"12 Pontos","vencedores":122881,"premio":"10,00"},{"acertos":"11 Pontos","vencedores":642801,"premio":"5,00"}],"estadosPremiados":[],"acumulou":false,"acumuladaProxConcurso":"R$ 1,5 Milhão","dataProxConcurso":"08/03/2022","proxConcurso":2465,"timeCoracao":null,"mesSorte":null},{"loteria":"lotofacil","nome":"Lotofácil","concurso":2463,"data":"05/03/2022","local":"ESPAÇODASORTE em SÃOPAULO,SP","dezenas":["05","07","09","10","11","12","13","14","15","17","18","20","21","23","25"],"premiacoes":[{"acertos":"15 Pontos","vencedores":1,"premio":"867.579,36"},{"acertos":"14 Pontos","vencedores":410,"premio":"633,83"},{"acertos":"13 Pontos","vencedores":13438,"premio":"25,00"},{"acertos":"12 Pontos","vencedores":151601,"premio":"10,00"},{"acertos":"11 Pontos","vencedores":715728,"premio":"5,00"}],"estadosPremiados":[{"nome":"São Paulo","uf":"SP","vencedores":"1","latitude":"-23.5557714","longitude":"-46.6395571","cidades":[{"cidade":"","vencedores":"1","latitude":null,"longitude":null}]}],"acumulou":false,"acumuladaProxConcurso":"","dataProxConcurso":"","proxConcurso":2464,"timeCoracao":null,"mesSorte":null},{"loteria":"lotofacil","nome":"Lotofácil","concurso":2462,"data":"04/03/2022","local":"ESPAÇODASORTE em SÃOPAULO,SP","dezenas":["03","04","05","09","10","11","12","14","15","16","17","18","20","22","25"],"premiacoes":[{"acertos":"15 Pontos","vencedores":2,"premio":"738.761,66"},{"acertos":"14 Pontos","vencedores":251,"premio":"1.763,25"},{"acertos":"13 Pontos","vencedores":9187,"premio":"25,00"},{"acertos":"12 Pontos","vencedores":123839,"premio":"10,00"},{"acertos":"11 Pontos","vencedores":697011,"premio":"5,00"}],"estadosPremiados":[{"nome":"Santa Catarina","uf":"SC","vencedores":"1","latitude":"-27.336122","longitude":"-50.071794","cidades":[{"cidade":"São Miguel do Oeste","vencedores":"1","latitude":"-26.7247058","longitude":"-53.5167732"}]},{"nome":"São Paulo","uf":"SP","vencedores":"1","latitude":"-23.5557714","longitude":"-46.6395571","cidades":[{"cidade":"São João da Boa Vista","vencedores":"1","latitude":null,"longitude":null}]}],"acumulou":false,"acumuladaProxConcurso":"R$ 1,5 Milhão","dataProxConcurso":"05/03/2022","proxConcurso":2463,"timeCoracao":null,"mesSorte":null},{"loteria":"lotofacil","nome":"Lotofácil","concurso":2461,"data":"03/03/2022","local":"ESPAÇODASORTE em SÃOPAULO,SP","dezenas":["01","02","05","07","10","13","14","15","17","18","19","20","21","22","24"],"premiacoes":[{"acertos":"15 Pontos","vencedores":1,"premio":"1.303.844,13"},{"acertos":"14 Pontos","vencedores":246,"premio":"1.587,61"},{"acertos":"13 Pontos","vencedores":8348,"premio":"25,00"},{"acertos":"12 Pontos","vencedores":108807,"premio":"10,00"},{"acertos":"11 Pontos","vencedores":597089,"premio":"5,00"}],"estadosPremiados":[],"acumulou":false,"acumuladaProxConcurso":"","dataProxConcurso":"","proxConcurso":2462,"timeCoracao":null,"mesSorte":null},{"loteria":"lotofacil","nome":"Lotofácil","concurso":2460,"data":"02/03/2022","local":"ESPAÇODASORTE em SÃOPAULO,SP","dezenas":["01","02","03","04","05","06","09","11","12","14","15","18","19","23","25"],"premiacoes":[{"acertos":"15 Pontos","vencedores":3,"premio":"1.725.542,59"},{"acertos":"14 Pontos","vencedores":396,"premio":"1.423,94"},{"acertos":"13 Pontos","vencedores":14997,"premio":"25,00"},{"acertos":"12 Pontos","vencedores":203313,"premio":"10,00"},{"acertos":"11 Pontos","vencedores":1138198,"premio":"5,00"}],"estadosPremiados":[],"acumulou":false,"acumuladaProxConcurso":"R$ 1,5 Milhão","dataProxConcurso":"03/03/2022","proxConcurso":2461,"timeCoracao":null,"mesSorte":null},{"loteria":"lotofacil","nome":"Lotofácil","concurso":2459,"data":"26/02/2022","local":"ESPAÇO LOTERIAS CAIXA em SÃO PAULO, SP","dezenas":["01","03","05","06","11","12","14","15","17","18","19","20","21","23","25"],"premiacoes":[{"acertos":"15 Pontos","vencedores":1,"premio":"1.161.375,40"},{"acertos":"14 Pontos","vencedores":223,"premio":"1.559,98"},{"acertos":"13 Pontos","vencedores":8987,"premio":"25,00"},{"acertos":"12 Pontos","vencedores":112119,"premio":"10,00"},{"acertos":"11 Pontos","vencedores":595456,"premio":"5,00"}],"estadosPremiados":[],"acumulou":false,"acumuladaProxConcurso":"","dataProxConcurso":"","proxConcurso":2460,"timeCoracao":null,"mesSorte":null},{"loteria":"lotofacil","nome":"Lotofácil","concurso":2458,"data":"25/02/2022","local":"ESPAÇO LOTERIAS CAIXA em SÃO PAULO, SP","dezenas":["01","02","03","04","06","08","10","11","12","16","18","21","22","24","25"],"premiacoes":[{"acertos":"15 Pontos","vencedores":1,"premio":"1.522.121,69"},{"acertos":"14 Pontos","vencedores":258,"premio":"1.767,19"},{"acertos":"13 Pontos","vencedores":11376,"premio":"25,00"},{"acertos":"12 Pontos","vencedores":124608,"premio":"10,00"},{"acertos":"11 Pontos","vencedores":630184,"premio":"5,00"}],"estadosPremiados":[{"nome":"Minas Gerais","uf":"MG","vencedores":"1","latitude":"-18.512178","longitude":"-44.5550308","cidades":[{"cidade":"Contagem","vencedores":"1","latitude":"-19.9161508","longitude":"-44.0808763"}]}],"acumulou":false,"acumuladaProxConcurso":"","dataProxConcurso":"","proxConcurso":2459,"timeCoracao":null,"mesSorte":null},{"loteria":"lotofacil","nome":"Lotofácil","concurso":2457,"data":"24/02/2022","local":"ESPAÇO LOTERIAS CAIXA em SÃO PAULO, SP","dezenas":["01","03","05","08","10","11","14","15","16","18","20","22","23","24","25"],"premiacoes":[{"acertos":"15 Pontos","vencedores":5,"premio":"518.597,67"},{"acertos":"14 Pontos","vencedores":868,"premio":"426,61"},{"acertos":"13 Pontos","vencedores":24539,"premio":"25,00"},{"acertos":"12 Pontos","vencedores":231368,"premio":"10,00"},{"acertos":"11 Pontos","vencedores":966415,"premio":"5,00"}],"estadosPremiados":[{"nome":"Espírito Santo","uf":"ES","vencedores":"1","latitude":"-19.1834229","longitude":"-40.3088626","cidades":[{"cidade":"Castelo","vencedores":"1","latitude":null,"longitude":null}]},{"nome":"Minas Gerais","uf":"MG","vencedores":"1","latitude":"-18.512178","longitude":"-44.5550308","cidades":[{"cidade":"Curvelo","vencedores":"1","latitude":"-18.7532048","longitude":"-44.4306733"}]},{"nome":"Paraná","uf":"PR","vencedores":"1","latitude":"-25.2520888","longitude":"-52.0215415","cidades":[{"cidade":"Medianeira","vencedores":"1","latitude":null,"longitude":null}]},{"nome":"Tocantins","uf":"TO","vencedores":"1","latitude":"-10.17528","longitude":"-48.2982474","cidades":[{"cidade":"Palmas","vencedores":"1","latitude":"-10.249091","longitude":"-48.32428580000001"}]},{"nome":"Tocantins","uf":"TO","vencedores":"1","latitude":"-10.17528","longitude":"-48.2982474","cidades":[{"cidade":"Paraíso do Tocantins","vencedores":"1","latitude":"-10.1753139","longitude":"-48.8827122"}]}],"acumulou":false,"acumuladaProxConcurso":"","dataProxConcurso":"","proxConcurso":2458,"timeCoracao":null,"mesSorte":null},{"loteria":"lotofacil","nome":"Lotofácil","concurso":2456,"data":"23/02/2022","local":"ESPAÇO LOTERIAS CAIXA em SÃO PAULO, SP","dezenas":["04","05","06","08","09","10","12","13","14","17","18","19","21","24","25"],"premiacoes":[{"acertos":"15 Pontos","vencedores":0,"premio":"-"},{"acertos":"14 Pontos","vencedores":263,"premio":"1.545,25"},{"acertos":"13 Pontos","vencedores":9764,"premio":"25,00"},{"acertos":"12 Pontos","vencedores":117535,"premio":"10,00"},{"acertos":"11 Pontos","vencedores":629814,"premio":"5,00"}],"estadosPremiados":[],"acumulou":true,"acumuladaProxConcurso":"R$ 3,8 Milhões","dataProxConcurso":"24/02/2022","proxConcurso":2457,"timeCoracao":null,"mesSorte":null},{"loteria":"lotofacil","nome":"Lotofácil","concurso":2455,"data":"22/02/2022","local":"ESPAÇO LOTERIAS CAIXA em SÃO PAULO, SP","dezenas":["01","02","03","08","10","11","12","13","14","16","19","22","23","24","25"],"premiacoes":[{"acertos":"15 Pontos","vencedores":3,"premio":"445.260,43"},{"acertos":"14 Pontos","vencedores":198,"premio":"1.414,56"},{"acertos":"13 Pontos","vencedores":9223,"premio":"25,00"},{"acertos":"12 Pontos","vencedores":105426,"premio":"10,00"},{"acertos":"11 Pontos","vencedores":573438,"premio":"5,00"}],"estadosPremiados":[{"nome":"Bahia","uf":"BA","vencedores":"1","latitude":"-12.579738","longitude":"-41.7007272","cidades":[{"cidade":"Xique-Xique","vencedores":"1","latitude":null,"longitude":null}]},{"nome":"Piauí","uf":"PI","vencedores":"1","latitude":"38.65501260000001","longitude":"-90.2977494","cidades":[{"cidade":"Teresina","vencedores":"1","latitude":"-5.0920108","longitude":"-42.80375970000001"}]},{"nome":"São Paulo","uf":"SP","vencedores":"1","latitude":"-23.5557714","longitude":"-46.6395571","cidades":[{"cidade":"São José dos Campos","vencedores":"1","latitude":"-23.223701","longitude":"-45.9009074"}]}],"acumulou":false,"acumuladaProxConcurso":"","dataProxConcurso":"","proxConcurso":2456,"timeCoracao":null,"mesSorte":null},{"loteria":"lotofacil","nome":"Lotofácil","concurso":2454,"data":"21/02/2022","local":"ESPAÇO LOTERIAS CAIXA em SÃO PAULO, SP","dezenas":["01","02","04","06","08","09","10","12","15","16","20","21","23","24","25"],"premiacoes":[{"acertos":"15 Pontos","vencedores":1,"premio":"1.553.066,32"},{"acertos":"14 Pontos","vencedores":214,"premio":"1.521,70"},{"acertos":"13 Pontos","vencedores":9041,"premio":"25,00"},{"acertos":"12 Pontos","vencedores":114865,"premio":"10,00"},{"acertos":"11 Pontos","vencedores":585564,"premio":"5,00"}],"estadosPremiados":[{"nome":"Pernambuco","uf":"PE","vencedores":"1","latitude":"-8.8137173","longitude":"-36.954107","cidades":[{"cidade":"Olinda","vencedores":"1","latitude":"-7.990632100000001","longitude":"-34.8416598"}]}],"acumulou":true,"acumuladaProxConcurso":"R$ 1,5 Milhão","dataProxConcurso":"22/02/2022","proxConcurso":2455,"timeCoracao":null,"mesSorte":null},{"loteria":"lotofacil","nome":"Lotofácil","concurso":2453,"data":"19/02/2022","local":"ESPAÇO LOTERIAS CAIXA em SÃO PAULO, SP","dezenas":["04","05","07","08","10","12","13","16","17","19","21","22","23","24","25"],"premiacoes":[{"acertos":"15 Pontos","vencedores":1,"premio":"3.615.425,53"},{"acertos":"14 Pontos","vencedores":349,"premio":"1.604,57"},{"acertos":"13 Pontos","vencedores":13111,"premio":"25,00"},{"acertos":"12 Pontos","vencedores":161390,"premio":"10,00"},{"acertos":"11 Pontos","vencedores":848310,"premio":"5,00"}],"estadosPremiados":[],"acumulou":false,"acumuladaProxConcurso":"","dataProxConcurso":"","proxConcurso":2454,"timeCoracao":null,"mesSorte":null},{"loteria":"lotofacil","nome":"Lotofácil","concurso":2452,"data":"18/02/2022","local":"ESPAÇO LOTERIAS CAIXA em SÃO PAULO, SP","dezenas":["01","06","07","08","09","11","15","17","18","20","21","22","23","24","25"],"premiacoes":[{"acertos":"15 Pontos","vencedores":0,"premio":"-"},{"acertos":"14 Pontos","vencedores":174,"premio":"2.103,88"},{"acertos":"13 Pontos","vencedores":6760,"premio":"25,00"},{"acertos":"12 Pontos","vencedores":102814,"premio":"10,00"},{"acertos":"11 Pontos","vencedores":610347,"premio":"5,00"}],"estadosPremiados":[],"acumulou":true,"acumuladaProxConcurso":"R$ 4 Milhões","dataProxConcurso":"19/02/2022","proxConcurso":2453,"timeCoracao":null,"mesSorte":null},{"loteria":"lotofacil","nome":"Lotofácil","concurso":2451,"data":"17/02/2022","local":"ESPAÇO LOTERIAS CAIXA em SÃO PAULO, SP","dezenas":["03","04","05","07","09","10","11","15","18","19","20","22","23","24","25"],"premiacoes":[{"acertos":"15 Pontos","vencedores":1,"premio":"951.460,74"},{"acertos":"14 Pontos","vencedores":309,"premio":"922,32"},{"acertos":"13 Pontos","vencedores":10937,"premio":"25,00"},{"acertos":"12 Pontos","vencedores":132916,"premio":"10,00"},{"acertos":"11 Pontos","vencedores":666548,"premio":"5,00"}],"estadosPremiados":[{"nome":"São Paulo","uf":"SP","vencedores":"1","latitude":"-23.5557714","longitude":"-46.6395571","cidades":[{"cidade":"Dracena","vencedores":"1","latitude":"-21.4877762","longitude":"-51.5375562"}]}],"acumulou":false,"acumuladaProxConcurso":"","dataProxConcurso":"","proxConcurso":2452,"timeCoracao":null,"mesSorte":null},{"loteria":"lotofacil","nome":"Lotofácil","concurso":2450,"data":"16/02/2022","local":"ESPAÇO LOTERIAS CAIXA em SÃO PAULO, SP","dezenas":["01","02","03","04","05","07","08","11","13","14","15","18","23","24","25"],"premiacoes":[{"acertos":"15 Pontos","vencedores":1,"premio":"7.092.053,86"},{"acertos":"14 Pontos","vencedores":620,"premio":"1.357,04"},{"acertos":"13 Pontos","vencedores":22043,"premio":"25,00"},{"acertos":"12 Pontos","vencedores":274339,"premio":"10,00"},{"acertos":"11 Pontos","vencedores":1416193,"premio":"5,00"}],"estadosPremiados":[],"acumulou":false,"acumuladaProxConcurso":"R$ 1,5 Milhão","dataProxConcurso":"17/02/2022","proxConcurso":2451,"timeCoracao":null,"mesSorte":null},{"loteria":"lotofacil","nome":"Lotofácil","concurso":2449,"data":"15/02/2022","local":"ESPAÇO LOTERIAS CAIXA em SÃO PAULO, SP","dezenas":["01","02","04","08","09","11","13","14","15","16","17","18","20","21","22"],"premiacoes":[{"acertos":"15 Pontos","vencedores":0,"premio":"-"},{"acertos":"14 Pontos","vencedores":192,"premio":"1.712,34"},{"acertos":"13 Pontos","vencedores":7597,"premio":"25,00"},{"acertos":"12 Pontos","vencedores":95796,"premio":"10,00"},{"acertos":"11 Pontos","vencedores":534333,"premio":"5,00"}],"estadosPremiados":[],"acumulou":true,"acumuladaProxConcurso":"","dataProxConcurso":"","proxConcurso":2450,"timeCoracao":null,"mesSorte":null},{"loteria":"lotofacil","nome":"Lotofácil","concurso":2448,"data":"14/02/2022","local":"ESPAÇO LOTERIAS CAIXA em SÃO PAULO, SP","dezenas":["02","03","04","05","06","08","09","11","12","14","16","19","20","22","24"],"premiacoes":[{"acertos":"15 Pontos","vencedores":2,"premio":"684.412,40"},{"acertos":"14 Pontos","vencedores":528,"premio":"776,54"},{"acertos":"13 Pontos","vencedores":16802,"premio":"25,00"},{"acertos":"12 Pontos","vencedores":140615,"premio":"10,00"},{"acertos":"11 Pontos","vencedores":673039,"premio":"5,00"}],"estadosPremiados":[{"nome":"São Paulo","uf":"SP","vencedores":"1","latitude":"-23.5557714","longitude":"-46.6395571","cidades":[{"cidade":"São José dos Campos","vencedores":"1","latitude":"-23.223701","longitude":"-45.9009074"}]},{"nome":"São Paulo","uf":"SP","vencedores":"1","latitude":"-23.5557714","longitude":"-46.6395571","cidades":[{"cidade":"São Paulo","vencedores":"1","latitude":"-23.5505199","longitude":"-46.63330939999999"}]}],"acumulou":false,"acumuladaProxConcurso":"R$ 1,5 Milhão","dataProxConcurso":"15/02/2022","proxConcurso":2449,"timeCoracao":null,"mesSorte":null},{"loteria":"lotofacil","nome":"Lotofácil","concurso":2447,"data":"12/02/2022","local":"ESPAÇO LOTERIAS CAIXA em SÃO PAULO, SP","dezenas":["02","03","04","05","08","13","14","15","16","17","18","19","20","22","23"],"premiacoes":[{"acertos":"15 Pontos","vencedores":1,"premio":"1.549.916,59"},{"acertos":"14 Pontos","vencedores":159,"premio":"2.043,91"},{"acertos":"13 Pontos","vencedores":6516,"premio":"25,00"},{"acertos":"12 Pontos","vencedores":90222,"premio":"10,00"},{"acertos":"11 Pontos","vencedores":551076,"premio":"5,00"}],"estadosPremiados":[{"nome":"Goiás","uf":"GO","vencedores":"1","latitude":"36.7156122","longitude":"-95.9435511","cidades":[]}],"acumulou":false,"acumuladaProxConcurso":"","dataProxConcurso":"","proxConcurso":2448,"timeCoracao":null,"mesSorte":null},{"loteria":"lotofacil","nome":"Lotofácil","concurso":2446,"data":"11/02/2022","local":"ESPAÇO LOTERIAS CAIXA em SÃO PAULO, SP","dezenas":["04","06","08","11","12","13","15","17","19","20","21","22","23","24","25"],"premiacoes":[{"acertos":"15 Pontos","vencedores":2,"premio":"1.779.840,05"},{"acertos":"14 Pontos","vencedores":477,"premio":"1.542,44"},{"acertos":"13 Pontos","vencedores":15764,"premio":"25,00"},{"acertos":"12 Pontos","vencedores":207068,"premio":"10,00"},{"acertos":"11 Pontos","vencedores":1051686,"premio":"5,00"}],"estadosPremiados":[{"nome":"Paraná","uf":"PR","vencedores":"1","latitude":"-25.2520888","longitude":"-52.0215415","cidades":[{"cidade":"Maringá","vencedores":"1","latitude":"-23.4209995","longitude":"-51.9330558"}]},{"nome":"Estado inválido","uf":"XX","vencedores":"1","latitude":"38.2898861","longitude":"-95.95255139999999","cidades":[{"cidade":"","vencedores":"1","latitude":null,"longitude":null}]}],"acumulou":false,"acumuladaProxConcurso":"","dataProxConcurso":"","proxConcurso":2447,"timeCoracao":null,"mesSorte":null},{"loteria":"lotofacil","nome":"Lotofácil","concurso":2445,"data":"10/02/2022","local":"ESPAÇO LOTERIAS CAIXA em SÃO PAULO, SP","dezenas":["01","02","05","06","07","08","10","11","13","15","18","21","22","23","25"],"premiacoes":[{"acertos":"15 Pontos","vencedores":0,"premio":"-"},{"acertos":"14 Pontos","vencedores":273,"premio":"1.210,68"},{"acertos":"13 Pontos","vencedores":11307,"premio":"25,00"},{"acertos":"12 Pontos","vencedores":146491,"premio":"10,00"},{"acertos":"11 Pontos","vencedores":684107,"premio":"5,00"}],"estadosPremiados":[],"acumulou":true,"acumuladaProxConcurso":"","dataProxConcurso":"","proxConcurso":2446,"timeCoracao":null,"mesSorte":null},{"loteria":"lotofacil","nome":"Lotofácil","concurso":2444,"data":"09/02/2022","local":"ESPAÇO LOTERIAS CAIXA em SÃO PAULO, SP","dezenas":["03","04","05","06","08","09","10","11","12","14","16","17","18","19","25"],"premiacoes":[{"acertos":"15 Pontos","vencedores":2,"premio":"771.445,07"},{"acertos":"14 Pontos","vencedores":266,"premio":"1.737,42"},{"acertos":"13 Pontos","vencedores":9795,"premio":"25,00"},{"acertos":"12 Pontos","vencedores":124144,"premio":"10,00"},{"acertos":"11 Pontos","vencedores":664032,"premio":"5,00"}],"estadosPremiados":[],"acumulou":false,"acumuladaProxConcurso":"R$ 1,5 Milhão","dataProxConcurso":"10/02/2022","proxConcurso":2445,"timeCoracao":null,"mesSorte":null},{"loteria":"lotofacil","nome":"Lotofácil","concurso":2443,"data":"08/02/2022","local":"ESPAÇO LOTERIAS CAIXA em SÃO PAULO, SP","dezenas":["02","03","05","06","07","09","10","14","15","16","17","20","21","22","23"],"premiacoes":[{"acertos":"15 Pontos","vencedores":3,"premio":"514.133,36"},{"acertos":"14 Pontos","vencedores":302,"premio":"1.529,83"},{"acertos":"13 Pontos","vencedores":9487,"premio":"25,00"},{"acertos":"12 Pontos","vencedores":104590,"premio":"10,00"},{"acertos":"11 Pontos","vencedores":590583,"premio":"5,00"}],"estadosPremiados":[{"nome":"Mato Grosso","uf":"MT","vencedores":"1","latitude":"-12.6818712","longitude":"-56.921099","cidades":[{"cidade":"Nova Olímpia","vencedores":"1","latitude":null,"longitude":null}]},{"nome":"São Paulo","uf":"SP","vencedores":"1","latitude":"-23.5557714","longitude":"-46.6395571","cidades":[{"cidade":"São José dos Campos","vencedores":"1","latitude":"-23.223701","longitude":"-45.9009074"}]},{"nome":"São Paulo","uf":"SP","vencedores":"1","latitude":"-23.5557714","longitude":"-46.6395571","cidades":[{"cidade":"São Paulo","vencedores":"1","latitude":"-23.5505199","longitude":"-46.63330939999999"}]}],"acumulou":false,"acumuladaProxConcurso":"","dataProxConcurso":"","proxConcurso":2444,"timeCoracao":null,"mesSorte":null},{"loteria":"lotofacil","nome":"Lotofácil","concurso":2442,"data":"07/02/2022","local":"ESPAÇO LOTERIAS CAIXA em SÃO PAULO, SP","dezenas":["01","06","07","10","11","12","14","15","16","17","18","19","21","22","25"],"premiacoes":[{"acertos":"15 Pontos","vencedores":2,"premio":"992.577,35"},{"acertos":"14 Pontos","vencedores":155,"premio":"2.685,44"},{"acertos":"13 Pontos","vencedores":6988,"premio":"25,00"},{"acertos":"12 Pontos","vencedores":99228,"premio":"10,00"},{"acertos":"11 Pontos","vencedores":625754,"premio":"5,00"}],"estadosPremiados":[{"nome":"Maranhão","uf":"MA","vencedores":"1","latitude":"42.4072107","longitude":"-71.3824374","cidades":[{"cidade":"Lago da Pedra","vencedores":"1","latitude":"-4.5701256","longitude":"-45.1323113"}]},{"nome":"São Paulo","uf":"SP","vencedores":"1","latitude":"-23.5557714","longitude":"-46.6395571","cidades":[{"cidade":"Praia Grande","vencedores":"1","latitude":"-24.0088603","longitude":"-46.412475"}]}],"acumulou":false,"acumuladaProxConcurso":"R$ 1,5 Milhão","dataProxConcurso":"08/02/2022","proxConcurso":2443,"timeCoracao":null,"mesSorte":null},{"loteria":"lotofacil","nome":"Lotofácil","concurso":2441,"data":"05/02/2022","local":"ESPAÇO LOTERIAS CAIXA em SÃO PAULO, SP","dezenas":["01","03","07","08","09","10","11","13","15","18","20","21","22","24","25"],"premiacoes":[{"acertos":"15 Pontos","vencedores":3,"premio":"302.877,95"},{"acertos":"14 Pontos","vencedores":429,"premio":"634,43"},{"acertos":"13 Pontos","vencedores":15124,"premio":"25,00"},{"acertos":"12 Pontos","vencedores":157762,"premio":"10,00"},{"acertos":"11 Pontos","vencedores":729639,"premio":"5,00"}],"estadosPremiados":[{"nome":"Paraná","uf":"PR","vencedores":"1","latitude":"-25.2520888","longitude":"-52.0215415","cidades":[{"cidade":"Ribeirão Claro","vencedores":"1","latitude":null,"longitude":null}]},{"nome":"Estado inválido","uf":"XX","vencedores":"2","latitude":"38.2898861","longitude":"-95.95255139999999","cidades":[{"cidade":"","vencedores":"2","latitude":null,"longitude":null}]}],"acumulou":false,"acumuladaProxConcurso":"","dataProxConcurso":"","proxConcurso":2442,"timeCoracao":null,"mesSorte":null},{"loteria":"lotofacil","nome":"Lotofácil","concurso":2440,"data":"04/02/2022","local":"ESPAÇO LOTERIAS CAIXA em SÃO PAULO, SP","dezenas":["03","04","05","06","08","09","11","14","16","18","20","21","22","24","25"],"premiacoes":[{"acertos":"15 Pontos","vencedores":4,"premio":"1.273.598,00"},{"acertos":"14 Pontos","vencedores":546,"premio":"1.465,00"},{"acertos":"13 Pontos","vencedores":19303,"premio":"25,00"},{"acertos":"12 Pontos","vencedores":219445,"premio":"10,00"},{"acertos":"11 Pontos","vencedores":1168714,"premio":"5,00"}],"estadosPremiados":[],"acumulou":false,"acumuladaProxConcurso":"R$ 1,5 Milhão","dataProxConcurso":"05/02/2022","proxConcurso":2441,"timeCoracao":null,"mesSorte":null},{"loteria":"lotofacil","nome":"Lotofácil","concurso":2439,"data":"03/02/2022","local":"ESPAÇO LOTERIAS CAIXA em SÃO PAULO, SP","dezenas":["02","05","07","08","09","10","11","13","15","16","17","20","21","23","25"],"premiacoes":[{"acertos":"15 Pontos","vencedores":5,"premio":"173.409,32"},{"acertos":"14 Pontos","vencedores":747,"premio":"347,67"},{"acertos":"13 Pontos","vencedores":18693,"premio":"25,00"},{"acertos":"12 Pontos","vencedores":167412,"premio":"10,00"},{"acertos":"11 Pontos","vencedores":713307,"premio":"5,00"}],"estadosPremiados":[{"nome":"Minas Gerais","uf":"MG","vencedores":"1","latitude":"-18.512178","longitude":"-44.5550308","cidades":[{"cidade":"Governador Valadares","vencedores":"1","latitude":"-18.8547986","longitude":"-41.9589601"}]},{"nome":"Pará","uf":"PA","vencedores":"1","latitude":"-1.9981271","longitude":"-54.9306152","cidades":[{"cidade":"Ananindeua","vencedores":"1","latitude":"-1.3650671","longitude":"-48.3746372"}]},{"nome":"Pará","uf":"PA","vencedores":"1","latitude":"-1.9981271","longitude":"-54.9306152","cidades":[{"cidade":"Marabá","vencedores":"1","latitude":"-5.5927124","longitude":"-50.1832516"}]},{"nome":"Paraná","uf":"PR","vencedores":"1","latitude":"-25.2520888","longitude":"-52.0215415","cidades":[{"cidade":"Curitiba","vencedores":"1","latitude":"-25.4808762","longitude":"-49.3044253"}]},{"nome":"Santa Catarina","uf":"SC","vencedores":"1","latitude":"-27.336122","longitude":"-50.071794","cidades":[{"cidade":"Bombinhas","vencedores":"1","latitude":null,"longitude":null}]}],"acumulou":false,"acumuladaProxConcurso":"","dataProxConcurso":"","proxConcurso":2440,"timeCoracao":null,"mesSorte":null},{"loteria":"lotofacil","nome":"Lotofácil","concurso":2438,"data":"02/02/2022","local":"ESPAÇO LOTERIAS CAIXA em SÃO PAULO, SP","dezenas":["01","04","05","06","08","11","12","13","14","16","18","19","22","23","24"],"premiacoes":[{"acertos":"15 Pontos","vencedores":2,"premio":"763.481,97"},{"acertos":"14 Pontos","vencedores":327,"premio":"1.398,73"},{"acertos":"13 Pontos","vencedores":10900,"premio":"25,00"},{"acertos":"12 Pontos","vencedores":119339,"premio":"10,00"},{"acertos":"11 Pontos","vencedores":618764,"premio":"5,00"}],"estadosPremiados":[{"nome":"Bahia","uf":"BA","vencedores":"1","latitude":"-12.579738","longitude":"-41.7007272","cidades":[{"cidade":"Camaçari","vencedores":"1","latitude":"-12.6971776","longitude":"-38.3331983"}]},{"nome":"Rio Grande do Norte","uf":"RN","vencedores":"1","latitude":"-5.402580299999999","longitude":"-36.954107","cidades":[{"cidade":"Natal","vencedores":"1","latitude":"-5.7792569","longitude":"-35.200916"}]}],"acumulou":false,"acumuladaProxConcurso":"R$ 1,5 Milhão","dataProxConcurso":"03/02/2022","proxConcurso":2439,"timeCoracao":null,"mesSorte":null},{"loteria":"lotofacil","nome":"Lotofácil","concurso":2437,"data":"01/02/2022","local":"ESPAÇO LOTERIAS CAIXA em SÃO PAULO, SP","dezenas":["01","02","07","08","09","10","11","13","14","15","17","18","20","21","25"],"premiacoes":[{"acertos":"15 Pontos","vencedores":1,"premio":"1.280.145,86"},{"acertos":"14 Pontos","vencedores":333,"premio":"1.151,51"},{"acertos":"13 Pontos","vencedores":9455,"premio":"25,00"},{"acertos":"12 Pontos","vencedores":117528,"premio":"10,00"},{"acertos":"11 Pontos","vencedores":640872,"premio":"5,00"}],"estadosPremiados":[{"nome":"São Paulo","uf":"SP","vencedores":"1","latitude":"-23.5557714","longitude":"-46.6395571","cidades":[{"cidade":"Jacareí","vencedores":"1","latitude":"-23.2987827","longitude":"-45.96625419999999"}]}],"acumulou":false,"acumuladaProxConcurso":"","dataProxConcurso":"","proxConcurso":2438,"timeCoracao":null,"mesSorte":null},{"loteria":"lotofacil","nome":"Lotofácil","concurso":2436,"data":"31/01/2022","local":"ESPAÇO LOTERIAS CAIXA em SÃO PAULO, SP","dezenas":["02","03","04","06","08","09","12","14","15","16","17","19","20","21","23"],"premiacoes":[{"acertos":"15 Pontos","vencedores":1,"premio":"1.667.790,65"},{"acertos":"14 Pontos","vencedores":348,"premio":"1.435,54"},{"acertos":"13 Pontos","vencedores":10582,"premio":"25,00"},{"acertos":"12 Pontos","vencedores":115383,"premio":"10,00"},{"acertos":"11 Pontos","vencedores":588961,"premio":"5,00"}],"estadosPremiados":[{"nome":"Rio de Janeiro","uf":"RJ","vencedores":"1","latitude":"34.948626","longitude":"@@GTo08","cidades":[{"cidade":"Rio de Janeiro","vencedores":"1","latitude":"-22.9068467","longitude":"-43.1728965"}]}],"acumulou":false,"acumuladaProxConcurso":"R$ 1,5 Milhão","dataProxConcurso":"01/02/2022","proxConcurso":2437,"timeCoracao":null,"mesSorte":null},{"loteria":"lotofacil","nome":"Lotofácil","concurso":2435,"data":"29/01/2022","local":"ESPAÇO LOTERIAS CAIXA em SÃO PAULO, SP","dezenas":["02","04","05","06","07","10","11","12","13","15","16","19","20","21","22"],"premiacoes":[{"acertos":"15 Pontos","vencedores":4,"premio":"325.300,64"},{"acertos":"14 Pontos","vencedores":313,"premio":"1.245,24"},{"acertos":"13 Pontos","vencedores":10316,"premio":"25,00"},{"acertos":"12 Pontos","vencedores":110965,"premio":"10,00"},{"acertos":"11 Pontos","vencedores":582552,"premio":"5,00"}],"estadosPremiados":[{"nome":"Bahia","uf":"BA","vencedores":"1","latitude":"-12.579738","longitude":"-41.7007272","cidades":[{"cidade":"Salvador","vencedores":"1","latitude":"-12.977749","longitude":"-38.5016301"}]},{"nome":"Espírito Santo","uf":"ES","vencedores":"1","latitude":"-19.1834229","longitude":"-40.3088626","cidades":[{"cidade":"Fundão","vencedores":"1","latitude":"-19.9375242","longitude":"-40.4081412"}]},{"nome":"Rio Grande do Sul","uf":"RS","vencedores":"1","latitude":"-30.0346316","longitude":"-51.2176986","cidades":[{"cidade":"Santo Ângelo","vencedores":"1","latitude":"-28.3001866","longitude":"-54.26583170000001"}]},{"nome":"São Paulo","uf":"SP","vencedores":"1","latitude":"-23.5557714","longitude":"-46.6395571","cidades":[{"cidade":"Promissão","vencedores":"1","latitude":null,"longitude":null}]}],"acumulou":false,"acumuladaProxConcurso":"","dataProxConcurso":"","proxConcurso":2436,"timeCoracao":null,"mesSorte":null},{"loteria":"lotofacil","nome":"Lotofácil","concurso":2434,"data":"28/01/2022","local":"ESPAÇO LOTERIAS CAIXA em SÃO PAULO, SP","dezenas":["01","04","07","11","13","14","16","17","19","20","21","22","23","24","25"],"premiacoes":[{"acertos":"15 Pontos","vencedores":1,"premio":"1.529.914,24"},{"acertos":"14 Pontos","vencedores":561,"premio":"816,87"},{"acertos":"13 Pontos","vencedores":9350,"premio":"25,00"},{"acertos":"12 Pontos","vencedores":130426,"premio":"10,00"},{"acertos":"11 Pontos","vencedores":644428,"premio":"5,00"}],"estadosPremiados":[{"nome":"Paraná","uf":"PR","vencedores":"1","latitude":"-25.2520888","longitude":"-52.0215415","cidades":[{"cidade":"Piraquara","vencedores":"1","latitude":null,"longitude":null}]}],"acumulou":true,"acumuladaProxConcurso":"R$ 1,5 Milhão","dataProxConcurso":"29/01/2022","proxConcurso":2435,"timeCoracao":null,"mesSorte":null},{"loteria":"lotofacil","nome":"Lotofácil","concurso":2433,"data":"27/01/2022","local":"ESPAÇO LOTERIAS CAIXA em SÃO PAULO, SP","dezenas":["01","03","04","05","06","09","10","11","12","13","15","18","20","21","24"],"premiacoes":[{"acertos":"15 Pontos","vencedores":4,"premio":"223.130,00"},{"acertos":"14 Pontos","vencedores":348,"premio":"768,23"},{"acertos":"13 Pontos","vencedores":12232,"premio":"25,00"},{"acertos":"12 Pontos","vencedores":141301,"premio":"10,00"},{"acertos":"11 Pontos","vencedores":676189,"premio":"5,00"}],"estadosPremiados":[],"acumulou":false,"acumuladaProxConcurso":"","dataProxConcurso":"","proxConcurso":2434,"timeCoracao":null,"mesSorte":null},{"loteria":"lotofacil","nome":"Lotofácil","concurso":2432,"data":"26/01/2022","local":"ESPAÇO LOTERIAS CAIXA em SÃO PAULO, SP","dezenas":["03","05","06","07","08","09","11","12","13","14","15","19","20","21","25"],"premiacoes":[{"acertos":"15 Pontos","vencedores":1,"premio":"3.292.653,04"},{"acertos":"14 Pontos","vencedores":324,"premio":"1.834,36"},{"acertos":"13 Pontos","vencedores":12565,"premio":"25,00"},{"acertos":"12 Pontos","vencedores":170069,"premio":"10,00"},{"acertos":"11 Pontos","vencedores":1001143,"premio":"5,00"}],"estadosPremiados":[],"acumulou":false,"acumuladaProxConcurso":"","dataProxConcurso":"","proxConcurso":2433,"timeCoracao":null,"mesSorte":null},{"loteria":"lotofacil","nome":"Lotofácil","concurso":2431,"data":"25/01/2022","local":"ESPAÇO LOTERIAS CAIXA em SÃO PAULO, SP","dezenas":["04","06","07","08","09","10","11","12","13","14","17","18","19","22","25"],"premiacoes":[{"acertos":"15 Pontos","vencedores":0,"premio":"-"},{"acertos":"14 Pontos","vencedores":177,"premio":"1.550,06"},{"acertos":"13 Pontos","vencedores":7225,"premio":"25,00"},{"acertos":"12 Pontos","vencedores":103900,"premio":"10,00"},{"acertos":"11 Pontos","vencedores":566618,"premio":"5,00"}],"estadosPremiados":[],"acumulou":true,"acumuladaProxConcurso":"","dataProxConcurso":"","proxConcurso":2432,"timeCoracao":null,"mesSorte":null},{"loteria":"lotofacil","nome":"Lotofácil","concurso":2430,"data":"24/01/2022","local":"ESPAÇO LOTERIAS CAIXA em SÃO PAULO, SP","dezenas":["01","04","05","07","08","10","11","12","14","17","18","19","20","21","23"],"premiacoes":[{"acertos":"15 Pontos","vencedores":7,"premio":"687.593,99"},{"acertos":"14 Pontos","vencedores":730,"premio":"941,49"},{"acertos":"13 Pontos","vencedores":20051,"premio":"25,00"},{"acertos":"12 Pontos","vencedores":221002,"premio":"10,00"},{"acertos":"11 Pontos","vencedores":1099704,"premio":"5,00"}],"estadosPremiados":[],"acumulou":false,"acumuladaProxConcurso":"R$ 1,5 Milhão","dataProxConcurso":"25/01/2022","proxConcurso":2431,"timeCoracao":null,"mesSorte":null},{"loteria":"lotofacil","nome":"Lotofácil","concurso":2429,"data":"22/01/2022","local":"ESPAÇO LOTERIAS CAIXA em SÃO PAULO, SP","dezenas":["01","04","05","06","08","09","10","11","12","14","15","19","20","21","24"],"premiacoes":[{"acertos":"15 Pontos","vencedores":2,"premio":"1.737.220,09"},{"acertos":"14 Pontos","vencedores":491,"premio":"1.137,96"},{"acertos":"13 Pontos","vencedores":19301,"premio":"25,00"},{"acertos":"12 Pontos","vencedores":164291,"premio":"10,00"},{"acertos":"11 Pontos","vencedores":874675,"premio":"5,00"}],"estadosPremiados":[{"nome":"Maranhão","uf":"MA","vencedores":"1","latitude":"42.4072107","longitude":"-71.3824374","cidades":[{"cidade":"Itapecuru Mirim","vencedores":"1","latitude":null,"longitude":null}]},{"nome":"São Paulo","uf":"SP","vencedores":"1","latitude":"-23.5557714","longitude":"-46.6395571","cidades":[{"cidade":"São Paulo","vencedores":"1","latitude":"-23.5505199","longitude":"-46.63330939999999"}]}],"acumulou":false,"acumuladaProxConcurso":"","dataProxConcurso":"","proxConcurso":2430,"timeCoracao":null,"mesSorte":null},{"loteria":"lotofacil","nome":"Lotofácil","concurso":2428,"data":"21/01/2022","local":"ESPAÇO LOTERIAS CAIXA em SÃO PAULO, SP","dezenas":["02","05","06","07","09","10","11","12","15","16","17","18","20","24","25"],"premiacoes":[{"acertos":"15 Pontos","vencedores":0,"premio":"-"},{"acertos":"14 Pontos","vencedores":203,"premio":"1.662,04"},{"acertos":"13 Pontos","vencedores":8805,"premio":"25,00"},{"acertos":"12 Pontos","vencedores":116683,"premio":"10,00"},{"acertos":"11 Pontos","vencedores":658965,"premio":"5,00"}],"estadosPremiados":[],"acumulou":true,"acumuladaProxConcurso":"","dataProxConcurso":"","proxConcurso":2429,"timeCoracao":null,"mesSorte":null},{"loteria":"lotofacil","nome":"Lotofácil","concurso":2427,"data":"20/01/2022","local":"ESPAÇO LOTERIAS CAIXA em SÃO PAULO, SP","dezenas":["01","03","06","08","11","15","16","17","18","19","20","21","22","23","24"],"premiacoes":[{"acertos":"15 Pontos","vencedores":1,"premio":"1.541.229,64"},{"acertos":"14 Pontos","vencedores":154,"premio":"2.098,45"},{"acertos":"13 Pontos","vencedores":5781,"premio":"25,00"},{"acertos":"12 Pontos","vencedores":79475,"premio":"10,00"},{"acertos":"11 Pontos","vencedores":514778,"premio":"5,00"}],"estadosPremiados":[{"nome":"São Paulo","uf":"SP","vencedores":"1","latitude":"-23.5557714","longitude":"-46.6395571","cidades":[{"cidade":"São Paulo","vencedores":"1","latitude":"-23.5505199","longitude":"-46.63330939999999"}]}],"acumulou":false,"acumuladaProxConcurso":"","dataProxConcurso":"","proxConcurso":2428,"timeCoracao":null,"mesSorte":null},{"loteria":"lotofacil","nome":"Lotofácil","concurso":2426,"data":"19/01/2022","local":"ESPAÇO LOTERIAS CAIXA em SÃO PAULO, SP","dezenas":["01","02","03","06","07","08","09","11","13","19","20","21","22","23","24"],"premiacoes":[{"acertos":"15 Pontos","vencedores":2,"premio":"813.170,54"},{"acertos":"14 Pontos","vencedores":194,"premio":"1.757,77"},{"acertos":"13 Pontos","vencedores":7719,"premio":"25,00"},{"acertos":"12 Pontos","vencedores":107989,"premio":"10,00"},{"acertos":"11 Pontos","vencedores":620066,"premio":"5,00"}],"estadosPremiados":[{"nome":"Piauí","uf":"PI","vencedores":"1","latitude":"38.65501260000001","longitude":"-90.2977494","cidades":[{"cidade":"Bom Jesus","vencedores":"1","latitude":null,"longitude":null}]},{"nome":"Santa Catarina","uf":"SC","vencedores":"1","latitude":"-27.336122","longitude":"-50.071794","cidades":[{"cidade":"Içara","vencedores":"1","latitude":null,"longitude":null}]}],"acumulou":false,"acumuladaProxConcurso":"R$ 1,5 Milhão","dataProxConcurso":"20/01/2022","proxConcurso":2427,"timeCoracao":null,"mesSorte":null},{"loteria":"lotofacil","nome":"Lotofácil","concurso":2425,"data":"18/01/2022","local":"ESPAÇO LOTERIAS CAIXA em SÃO PAULO, SP","dezenas":["01","03","04","05","06","10","11","13","15","19","20","21","22","24","25"],"premiacoes":[{"acertos":"15 Pontos","vencedores":1,"premio":"886.557,71"},{"acertos":"14 Pontos","vencedores":361,"premio":"735,61"},{"acertos":"13 Pontos","vencedores":15094,"premio":"25,00"},{"acertos":"12 Pontos","vencedores":156805,"premio":"10,00"},{"acertos":"11 Pontos","vencedores":721372,"premio":"5,00"}],"estadosPremiados":[],"acumulou":false,"acumuladaProxConcurso":"","dataProxConcurso":"","proxConcurso":2426,"timeCoracao":null,"mesSorte":null},{"loteria":"lotofacil","nome":"Lotofácil","concurso":2424,"data":"17/01/2022","local":"ESPAÇO LOTERIAS CAIXA em SÃO PAULO, SP","dezenas":["01","03","04","05","06","09","10","11","14","15","16","20","22","23","25"],"premiacoes":[{"acertos":"15 Pontos","vencedores":1,"premio":"1.434.671,19"},{"acertos":"14 Pontos","vencedores":363,"premio":"1.183,85"},{"acertos":"13 Pontos","vencedores":11783,"premio":"25,00"},{"acertos":"12 Pontos","vencedores":136962,"premio":"10,00"},{"acertos":"11 Pontos","vencedores":696227,"premio":"5,00"}],"estadosPremiados":[{"nome":"Paraná","uf":"PR","vencedores":"1","latitude":"-25.2520888","longitude":"-52.0215415","cidades":[{"cidade":"Paula Freitas","vencedores":"1","latitude":null,"longitude":null}]}],"acumulou":false,"acumuladaProxConcurso":"R$ 1,5 Milhão","dataProxConcurso":"18/01/2022","proxConcurso":2425,"timeCoracao":null,"mesSorte":null},{"loteria":"lotofacil","nome":"Lotofácil","concurso":2423,"data":"15/01/2022","local":"ESPAÇO LOTERIAS CAIXA em SÃO PAULO, SP","dezenas":["03","04","05","07","08","09","10","11","15","16","17","18","19","20","24"],"premiacoes":[{"acertos":"15 Pontos","vencedores":1,"premio":"1.483.584,53"},{"acertos":"14 Pontos","vencedores":201,"premio":"1.547,63"},{"acertos":"13 Pontos","vencedores":7170,"premio":"25,00"},{"acertos":"12 Pontos","vencedores":98611,"premio":"10,00"},{"acertos":"11 Pontos","vencedores":582562,"premio":"5,00"}],"estadosPremiados":[{"nome":"Tocantins","uf":"TO","vencedores":"1","latitude":"-10.17528","longitude":"-48.2982474","cidades":[{"cidade":"Wanderlândia","vencedores":"1","latitude":null,"longitude":null}]}],"acumulou":false,"acumuladaProxConcurso":"","dataProxConcurso":"","proxConcurso":2424,"timeCoracao":null,"mesSorte":null},{"loteria":"lotofacil","nome":"Lotofácil","concurso":2422,"data":"14/01/2022","local":"ESPAÇO LOTERIAS CAIXA em SÃO PAULO, SP","dezenas":["01","02","03","04","05","07","08","10","11","12","14","17","18","22","25"],"premiacoes":[{"acertos":"15 Pontos","vencedores":1,"premio":"1.420.596,85"},{"acertos":"14 Pontos","vencedores":371,"premio":"1.146,96"},{"acertos":"13 Pontos","vencedores":12885,"premio":"25,00"},{"acertos":"12 Pontos","vencedores":151549,"premio":"10,00"},{"acertos":"11 Pontos","vencedores":793818,"premio":"5,00"}],"estadosPremiados":[{"nome":"Distrito Federal","uf":"DF","vencedores":"1","latitude":"-15.7997654","longitude":"-47.8644715","cidades":[{"cidade":"Brasília","vencedores":"1","latitude":"-15.826691","longitude":"-47.92182039999999"}]}],"acumulou":false,"acumuladaProxConcurso":"R$ 1,5 Milhão","dataProxConcurso":"15/01/2022","proxConcurso":2423,"timeCoracao":null,"mesSorte":null},{"loteria":"lotofacil","nome":"Lotofácil","concurso":2421,"data":"13/01/2022","local":"ESPAÇO LOTERIAS CAIXA em SÃO PAULO, SP","dezenas":["03","04","05","06","07","10","13","14","16","17","19","20","21","22","24"],"premiacoes":[{"acertos":"15 Pontos","vencedores":3,"premio":"484.612,23"},{"acertos":"14 Pontos","vencedores":272,"premio":"1.601,03"},{"acertos":"13 Pontos","vencedores":9747,"premio":"25,00"},{"acertos":"12 Pontos","vencedores":115870,"premio":"10,00"},{"acertos":"11 Pontos","vencedores":604013,"premio":"5,00"}],"estadosPremiados":[],"acumulou":false,"acumuladaProxConcurso":"","dataProxConcurso":"","proxConcurso":2422,"timeCoracao":null,"mesSorte":null},{"loteria":"lotofacil","nome":"Lotofácil","concurso":2420,"data":"12/01/2022","local":"ESPAÇO LOTERIAS CAIXA em SÃO PAULO, SP","dezenas":["01","03","05","09","10","11","12","13","14","15","18","21","22","24","25"],"premiacoes":[{"acertos":"15 Pontos","vencedores":2,"premio":"3.416.783,38"},{"acertos":"14 Pontos","vencedores":653,"premio":"1.241,28"},{"acertos":"13 Pontos","vencedores":21173,"premio":"25,00"},{"acertos":"12 Pontos","vencedores":280672,"premio":"10,00"},{"acertos":"11 Pontos","vencedores":1462963,"premio":"5,00"}],"estadosPremiados":[],"acumulou":false,"acumuladaProxConcurso":"R$ 1,5 Milhão","dataProxConcurso":"13/01/2022","proxConcurso":2421,"timeCoracao":null,"mesSorte":null},{"loteria":"lotofacil","nome":"Lotofácil","concurso":2419,"data":"11/01/2022","local":"ESPAÇO LOTERIAS CAIXA em SÃO PAULO, SP","dezenas":["02","03","05","06","10","11","12","13","15","18","19","21","22","23","24"],"premiacoes":[{"acertos":"15 Pontos","vencedores":0,"premio":"-"},{"acertos":"14 Pontos","vencedores":271,"premio":"1.503,50"},{"acertos":"13 Pontos","vencedores":9977,"premio":"25,00"},{"acertos":"12 Pontos","vencedores":120769,"premio":"10,00"},{"acertos":"11 Pontos","vencedores":658921,"premio":"5,00"}],"estadosPremiados":[],"acumulou":true,"acumuladaProxConcurso":"","dataProxConcurso":"","proxConcurso":2420,"timeCoracao":null,"mesSorte":null},{"loteria":"lotofacil","nome":"Lotofácil","concurso":2418,"data":"10/01/2022","local":"ESPAÇO LOTERIAS CAIXA em SÃO PAULO, SP","dezenas":["03","04","07","08","11","12","13","14","16","17","18","19","20","23","24"],"premiacoes":[{"acertos":"15 Pontos","vencedores":4,"premio":"400.066,29"},{"acertos":"14 Pontos","vencedores":298,"premio":"1.608,53"},{"acertos":"13 Pontos","vencedores":9798,"premio":"25,00"},{"acertos":"12 Pontos","vencedores":132110,"premio":"10,00"},{"acertos":"11 Pontos","vencedores":706493,"premio":"5,00"}],"estadosPremiados":[{"nome":"Ceará","uf":"CE","vencedores":"1","latitude":"-5.4983977","longitude":"-39.3206241","cidades":[{"cidade":"Fortaleza","vencedores":"1","latitude":"-3.7327144","longitude":"-38.5269981"}]},{"nome":"Minas Gerais","uf":"MG","vencedores":"1","latitude":"-18.512178","longitude":"-44.5550308","cidades":[{"cidade":"Divinópolis","vencedores":"1","latitude":"-20.103444","longitude":"-44.9716724"}]},{"nome":"Pernambuco","uf":"PE","vencedores":"1","latitude":"-8.8137173","longitude":"-36.954107","cidades":[{"cidade":"Recife","vencedores":"1","latitude":"-8.0522404","longitude":"-34.9286096"}]},{"nome":"São Paulo","uf":"SP","vencedores":"1","latitude":"-23.5557714","longitude":"-46.6395571","cidades":[{"cidade":"Guarujá","vencedores":"1","latitude":"-23.9948205","longitude":"-46.2568999"}]}],"acumulou":false,"acumuladaProxConcurso":"R$ 1,5 Milhão","dataProxConcurso":"11/01/2022","proxConcurso":2419,"timeCoracao":null,"mesSorte":null},{"loteria":"lotofacil","nome":"Lotofácil","concurso":2417,"data":"08/01/2022","local":"ESPAÇO LOTERIAS CAIXA em SÃO PAULO, SP","dezenas":["01","04","06","07","08","09","10","11","14","15","17","18","22","23","25"],"premiacoes":[{"acertos":"15 Pontos","vencedores":1,"premio":"1.599.420,84"},{"acertos":"14 Pontos","vencedores":181,"premio":"1.852,83"},{"acertos":"13 Pontos","vencedores":8726,"premio":"25,00"},{"acertos":"12 Pontos","vencedores":91832,"premio":"10,00"},{"acertos":"11 Pontos","vencedores":543215,"premio":"5,00"}],"estadosPremiados":[],"acumulou":false,"acumuladaProxConcurso":"","dataProxConcurso":"","proxConcurso":2418,"timeCoracao":null,"mesSorte":null},{"loteria":"lotofacil","nome":"Lotofácil","concurso":2416,"data":"07/01/2022","local":"ESPAÇO LOTERIAS CAIXA em SÃO PAULO, SP","dezenas":["04","05","06","07","11","13","14","15","16","17","18","20","21","22","25"],"premiacoes":[{"acertos":"15 Pontos","vencedores":1,"premio":"4.449.206,30"},{"acertos":"14 Pontos","vencedores":416,"premio":"1.476,61"},{"acertos":"13 Pontos","vencedores":13870,"premio":"25,00"},{"acertos":"12 Pontos","vencedores":177568,"premio":"10,00"},{"acertos":"11 Pontos","vencedores":1035896,"premio":"5,00"}],"estadosPremiados":[],"acumulou":false,"acumuladaProxConcurso":"","dataProxConcurso":"","proxConcurso":2417,"timeCoracao":null,"mesSorte":null},{"loteria":"lotofacil","nome":"Lotofácil","concurso":2415,"data":"06/01/2022","local":"ESPAÇO LOTERIAS CAIXA em SÃO PAULO, SP","dezenas":["02","06","07","09","10","11","12","13","14","19","20","21","22","23","25"],"premiacoes":[{"acertos":"15 Pontos","vencedores":0,"premio":"-"},{"acertos":"14 Pontos","vencedores":177,"premio":"1.800,16"},{"acertos":"13 Pontos","vencedores":8465,"premio":"25,00"},{"acertos":"12 Pontos","vencedores":117741,"premio":"10,00"},{"acertos":"11 Pontos","vencedores":670742,"premio":"5,00"}],"estadosPremiados":[],"acumulou":true,"acumuladaProxConcurso":"","dataProxConcurso":"","proxConcurso":2416,"timeCoracao":null,"mesSorte":null},{"loteria":"lotofacil","nome":"Lotofácil","concurso":2414,"data":"05/01/2022","local":"ESPAÇO LOTERIAS CAIXA em SÃO PAULO, SP","dezenas":["03","04","05","06","07","08","09","10","11","13","16","17","19","21","24"],"premiacoes":[{"acertos":"15 Pontos","vencedores":4,"premio":"396.448,82"},{"acertos":"14 Pontos","vencedores":230,"premio":"1.445,68"},{"acertos":"13 Pontos","vencedores":9122,"premio":"25,00"},{"acertos":"12 Pontos","vencedores":123064,"premio":"10,00"},{"acertos":"11 Pontos","vencedores":706023,"premio":"5,00"}],"estadosPremiados":[{"nome":"Bahia","uf":"BA","vencedores":"1","latitude":"-12.579738","longitude":"-41.7007272","cidades":[{"cidade":"Salvador","vencedores":"1","latitude":"-12.977749","longitude":"-38.5016301"}]},{"nome":"Paraná","uf":"PR","vencedores":"1","latitude":"-25.2520888","longitude":"-52.0215415","cidades":[{"cidade":"Irati","vencedores":"1","latitude":null,"longitude":null}]},{"nome":"Rio Grande do Sul","uf":"RS","vencedores":"1","latitude":"-30.0346316","longitude":"-51.2176986","cidades":[{"cidade":"Osório","vencedores":"1","latitude":null,"longitude":null}]},{"nome":"São Paulo","uf":"SP","vencedores":"1","latitude":"-23.5557714","longitude":"-46.6395571","cidades":[{"cidade":"São Paulo","vencedores":"1","latitude":"-23.5505199","longitude":"-46.63330939999999"}]}],"acumulou":false,"acumuladaProxConcurso":"R$ 1,5 Milhão","dataProxConcurso":"06/01/2022","proxConcurso":2415,"timeCoracao":null,"mesSorte":null},{"loteria":"lotofacil","nome":"Lotofácil","concurso":2413,"data":"04/01/2022","local":"ESPAÇO LOTERIAS CAIXA em SÃO PAULO, SP","dezenas":["01","03","04","05","06","07","08","09","12","15","16","18","20","21","25"],"premiacoes":[{"acertos":"15 Pontos","vencedores":2,"premio":"715.702,58"},{"acertos":"14 Pontos","vencedores":239,"premio":"1.793,98"},{"acertos":"13 Pontos","vencedores":9664,"premio":"25,00"},{"acertos":"12 Pontos","vencedores":111275,"premio":"10,00"},{"acertos":"11 Pontos","vencedores":597439,"premio":"5,00"}],"estadosPremiados":[{"nome":"Mato Grosso","uf":"MT","vencedores":"1","latitude":"-12.6818712","longitude":"-56.921099","cidades":[{"cidade":"Cuiabá","vencedores":"1","latitude":"-15.6014109","longitude":"-56.0978917"}]},{"nome":"São Paulo","uf":"SP","vencedores":"1","latitude":"-23.5557714","longitude":"-46.6395571","cidades":[{"cidade":"Gabriel Monteiro","vencedores":"1","latitude":"-21.5297379","longitude":"-50.5529698"}]}],"acumulou":false,"acumuladaProxConcurso":"","dataProxConcurso":"","proxConcurso":2414,"timeCoracao":null,"mesSorte":null},{"loteria":"lotofacil","nome":"Lotofácil","concurso":2412,"data":"03/01/2022","local":"ESPAÇO LOTERIAS CAIXA em SÃO PAULO, SP","dezenas":["01","04","06","07","08","09","11","13","14","15","17","18","19","21","24"],"premiacoes":[{"acertos":"15 Pontos","vencedores":3,"premio":"551.054,56"},{"acertos":"14 Pontos","vencedores":301,"premio":"1.645,14"},{"acertos":"13 Pontos","vencedores":9466,"premio":"25,00"},{"acertos":"12 Pontos","vencedores":111929,"premio":"10,00"},{"acertos":"11 Pontos","vencedores":615719,"premio":"5,00"}],"estadosPremiados":[{"nome":"Distrito Federal","uf":"DF","vencedores":"1","latitude":"-15.7997654","longitude":"-47.8644715","cidades":[{"cidade":"Brasília","vencedores":"1","latitude":"-15.826691","longitude":"-47.92182039999999"}]},{"nome":"Minas Gerais","uf":"MG","vencedores":"1","latitude":"-18.512178","longitude":"-44.5550308","cidades":[{"cidade":"Belo Horizonte","vencedores":"1","latitude":"-19.9166813","longitude":"-43.9344931"}]},{"nome":"Estado inválido","uf":"XX","vencedores":"1","latitude":"38.2898861","longitude":"-95.95255139999999","cidades":[{"cidade":"","vencedores":"1","latitude":null,"longitude":null}]}],"acumulou":false,"acumuladaProxConcurso":"R$ 1,5 Milhão","dataProxConcurso":"04/01/2022","proxConcurso":2413,"timeCoracao":null,"mesSorte":null},{"loteria":"lotofacil","nome":"Lotofácil","concurso":2411,"data":"31/12/2021","local":"ESPAÇO LOTERIAS CAIXA em SÃO PAULO, SP","dezenas":["01","02","03","04","05","07","08","09","10","12","13","14","17","19","24"],"premiacoes":[{"acertos":"15 Pontos","vencedores":7,"premio":"110.230,91"},{"acertos":"14 Pontos","vencedores":422,"premio":"547,69"},{"acertos":"13 Pontos","vencedores":11845,"premio":"25,00"},{"acertos":"12 Pontos","vencedores":146978,"premio":"10,00"},{"acertos":"11 Pontos","vencedores":597879,"premio":"5,00"}],"estadosPremiados":[{"nome":"Bahia","uf":"BA","vencedores":"1","latitude":"-12.579738","longitude":"-41.7007272","cidades":[{"cidade":"Maracás","vencedores":"1","latitude":null,"longitude":null}]},{"nome":"Minas Gerais","uf":"MG","vencedores":"1","latitude":"-18.512178","longitude":"-44.5550308","cidades":[{"cidade":"Ferros","vencedores":"1","latitude":null,"longitude":null}]},{"nome":"Santa Catarina","uf":"SC","vencedores":"1","latitude":"-27.336122","longitude":"-50.071794","cidades":[{"cidade":"Orleans","vencedores":"1","latitude":null,"longitude":null}]},{"nome":"São Paulo","uf":"SP","vencedores":"3","latitude":"-23.5557714","longitude":"-46.6395571","cidades":[{"cidade":"Laranjal Paulista","vencedores":"1","latitude":"-23.0508797","longitude":"-47.8366464"},{"cidade":"São Paulo","vencedores":"2","latitude":"-23.5505199","longitude":"-46.63330939999999"}]},{"nome":"Estado inválido","uf":"XX","vencedores":"1","latitude":"38.2898861","longitude":"-95.95255139999999","cidades":[{"cidade":"","vencedores":"1","latitude":null,"longitude":null}]}],"acumulou":false,"acumuladaProxConcurso":"","dataProxConcurso":"","proxConcurso":2412,"timeCoracao":null,"mesSorte":null},{"loteria":"lotofacil","nome":"Lotofácil","concurso":2410,"data":"30/12/2021","local":"Espaço Loterias Caixa em SÃO PAULO, SP","dezenas":["01","02","03","04","07","09","10","13","14","16","17","19","20","22","23"],"premiacoes":[{"acertos":"15 Pontos","vencedores":3,"premio":"1.424.466,90"},{"acertos":"14 Pontos","vencedores":468,"premio":"1.261,99"},{"acertos":"13 Pontos","vencedores":15693,"premio":"25,00"},{"acertos":"12 Pontos","vencedores":180698,"premio":"10,00"},{"acertos":"11 Pontos","vencedores":938136,"premio":"5,00"}],"estadosPremiados":[{"nome":"Distrito Federal","uf":"DF","vencedores":"1","latitude":"-15.7997654","longitude":"-47.8644715","cidades":[{"cidade":"Brasília","vencedores":"1","latitude":"-15.826691","longitude":"-47.92182039999999"}]},{"nome":"São Paulo","uf":"SP","vencedores":"2","latitude":"-23.5557714","longitude":"-46.6395571","cidades":[{"cidade":"Americana","vencedores":"1","latitude":"-22.7244322","longitude":"-47.2826144"},{"cidade":"Santo André","vencedores":"1","latitude":"-23.6742228","longitude":"-46.5436003"}]}],"acumulou":false,"acumuladaProxConcurso":"R$ 1,2 Milhão","dataProxConcurso":"31/12/2021","proxConcurso":2411,"timeCoracao":null,"mesSorte":null},{"loteria":"lotofacil","nome":"Lotofácil","concurso":2409,"data":"29/12/2021","local":"ESPAÇO LOTERIAS CAIXA em SÃO PAULO, SP","dezenas":["01","02","05","06","07","08","09","10","12","16","19","20","21","22","25"],"premiacoes":[{"acertos":"15 Pontos","vencedores":3,"premio":"560.131,74"},{"acertos":"14 Pontos","vencedores":222,"premio":"1.587,12"},{"acertos":"13 Pontos","vencedores":8644,"premio":"25,00"},{"acertos":"12 Pontos","vencedores":103511,"premio":"10,00"},{"acertos":"11 Pontos","vencedores":596588,"premio":"5,00"}],"estadosPremiados":[{"nome":"Minas Gerais","uf":"MG","vencedores":"1","latitude":"-18.512178","longitude":"-44.5550308","cidades":[{"cidade":"Vespasiano","vencedores":"1","latitude":"-19.6888097","longitude":"-43.9243776"}]},{"nome":"São Paulo","uf":"SP","vencedores":"1","latitude":"-23.5557714","longitude":"-46.6395571","cidades":[{"cidade":"São Paulo","vencedores":"1","latitude":"-23.5505199","longitude":"-46.63330939999999"}]},{"nome":"Estado inválido","uf":"XX","vencedores":"1","latitude":"38.2898861","longitude":"-95.95255139999999","cidades":[{"cidade":"","vencedores":"1","latitude":null,"longitude":null}]}],"acumulou":false,"acumuladaProxConcurso":"R$ 4 Milhões","dataProxConcurso":"30/12/2021","proxConcurso":2410,"timeCoracao":null,"mesSorte":null},{"loteria":"lotofacil","nome":"Lotofácil","concurso":2408,"data":"28/12/2021","local":"ESPAÇO LOTERIAS CAIXA em SÃO PAULO, SP","dezenas":["01","03","04","06","08","09","10","11","12","13","16","19","21","22","23"],"premiacoes":[{"acertos":"15 Pontos","vencedores":4,"premio":"369.769,22"},{"acertos":"14 Pontos","vencedores":240,"premio":"1.846,00"},{"acertos":"13 Pontos","vencedores":8127,"premio":"25,00"},{"acertos":"12 Pontos","vencedores":105829,"premio":"10,00"},{"acertos":"11 Pontos","vencedores":558875,"premio":"5,00"}],"estadosPremiados":[{"nome":"São Paulo","uf":"SP","vencedores":"4","latitude":"-23.5557714","longitude":"-46.6395571","cidades":[{"cidade":"São Paulo","vencedores":"4","latitude":"-23.5505199","longitude":"-46.63330939999999"}]}],"acumulou":false,"acumuladaProxConcurso":"","dataProxConcurso":"","proxConcurso":2409,"timeCoracao":null,"mesSorte":null},{"loteria":"lotofacil","nome":"Lotofácil","concurso":2407,"data":"27/12/2021","local":"ESPAÇO LOTERIAS CAIXA em SÃO PAULO, SP","dezenas":["01","02","03","04","06","08","09","11","12","17","18","19","20","23","24"],"premiacoes":[{"acertos":"15 Pontos","vencedores":1,"premio":"1.657.772,62"},{"acertos":"14 Pontos","vencedores":194,"premio":"1.791,74"},{"acertos":"13 Pontos","vencedores":8030,"premio":"25,00"},{"acertos":"12 Pontos","vencedores":108033,"premio":"10,00"},{"acertos":"11 Pontos","vencedores":623887,"premio":"5,00"}],"estadosPremiados":[{"nome":"Goiás","uf":"GO","vencedores":"1","latitude":"36.7156122","longitude":"-95.9435511","cidades":[{"cidade":"Varjão","vencedores":"1","latitude":null,"longitude":null}]}],"acumulou":false,"acumuladaProxConcurso":"R$ 1,5 Milhão","dataProxConcurso":"28/12/2021","proxConcurso":2408,"timeCoracao":null,"mesSorte":null},{"loteria":"lotofacil","nome":"Lotofácil","concurso":2406,"data":"24/12/2021","local":"ESPAÇO LOTERIAS CAIXA em SÃO PAULO, SP","dezenas":["01","02","03","05","06","08","10","12","15","17","20","21","23","24","25"],"premiacoes":[{"acertos":"15 Pontos","vencedores":3,"premio":"274.207,82"},{"acertos":"14 Pontos","vencedores":441,"premio":"558,74"},{"acertos":"13 Pontos","vencedores":13049,"premio":"25,00"},{"acertos":"12 Pontos","vencedores":124664,"premio":"10,00"},{"acertos":"11 Pontos","vencedores":571694,"premio":"5,00"}],"estadosPremiados":[{"nome":"Alagoas","uf":"AL","vencedores":"1","latitude":"32.3182314","longitude":"-86.902298","cidades":[{"cidade":"Arapiraca","vencedores":"1","latitude":"-9.7555596","longitude":"-36.6639697"}]},{"nome":"São Paulo","uf":"SP","vencedores":"1","latitude":"-23.5557714","longitude":"-46.6395571","cidades":[{"cidade":"Amparo","vencedores":"1","latitude":"-22.7080425","longitude":"-46.7726251"}]},{"nome":"São Paulo","uf":"SP","vencedores":"1","latitude":"-23.5557714","longitude":"-46.6395571","cidades":[{"cidade":"Boituva","vencedores":"1","latitude":"-23.2959258","longitude":"-47.6802852"}]}],"acumulou":false,"acumuladaProxConcurso":"","dataProxConcurso":"","proxConcurso":2407,"timeCoracao":null,"mesSorte":null},{"loteria":"lotofacil","nome":"Lotofácil","concurso":2405,"data":"23/12/2021","local":"ESPAÇO LOTERIAS CAIXA em SÃO PAULO, SP","dezenas":["02","03","04","05","06","07","08","09","11","15","17","18","19","21","23"],"premiacoes":[{"acertos":"15 Pontos","vencedores":1,"premio":"1.411.882,42"},{"acertos":"14 Pontos","vencedores":222,"premio":"1.333,51"},{"acertos":"13 Pontos","vencedores":10236,"premio":"25,00"},{"acertos":"12 Pontos","vencedores":122314,"premio":"10,00"},{"acertos":"11 Pontos","vencedores":630137,"premio":"5,00"}],"estadosPremiados":[{"nome":"Distrito Federal","uf":"DF","vencedores":"1","latitude":"-15.7997654","longitude":"-47.8644715","cidades":[{"cidade":"Brasília","vencedores":"1","latitude":"-15.826691","longitude":"-47.92182039999999"}]}],"acumulou":false,"acumuladaProxConcurso":"R$ 1,5 Milhão","dataProxConcurso":"24/12/2021","proxConcurso":2406,"timeCoracao":null,"mesSorte":null},{"loteria":"lotofacil","nome":"Lotofácil","concurso":2404,"data":"22/12/2021","local":"ESPAÇO LOTERIAS CAIXA em SÃO PAULO, SP","dezenas":["01","02","03","04","05","07","10","11","12","14","15","22","23","24","25"],"premiacoes":[{"acertos":"15 Pontos","vencedores":1,"premio":"1.284.582,93"},{"acertos":"14 Pontos","vencedores":326,"premio":"1.180,31"},{"acertos":"13 Pontos","vencedores":16780,"premio":"25,00"},{"acertos":"12 Pontos","vencedores":121540,"premio":"10,00"},